{
"type": "FeatureCollection",
"name": "city_all",
"crs": { "type": "name", "properties": { "name": "urn:ogc:def:crs:OGC:1.3:CRS84" } },
"features": [
{ "type": "Feature", "properties": { "full_id": "n1532708613", "osm_id": "1532708613", "place": "city", "namerus": "Кривой Рог", "name": "Кривий Ріг" }, "geometry": { "type": "Point", "coordinates": [ 33.3917703, 47.9102734 ] } },
{ "type": "Feature", "properties": { "full_id": "n1685829423", "osm_id": "1685829423", "place": "city", "namerus": "Харьков", "name": "Харків" }, "geometry": { "type": "Point", "coordinates": [ 36.2310146, 49.9923181 ] } },
{ "type": "Feature", "properties": { "full_id": "n1756064253", "osm_id": "1756064253", "place": "city", "namerus": "Каменское", "name": "Кам’янське" }, "geometry": { "type": "Point", "coordinates": [ 34.6068797, 48.5167748 ] } },
{ "type": "Feature", "properties": { "full_id": "n1756064266", "osm_id": "1756064266", "place": "city", "namerus": "Мелитополь", "name": "Мелітополь" }, "geometry": { "type": "Point", "coordinates": [ 35.3827281, 46.8467267 ] } },
{ "type": "Feature", "properties": { "full_id": "n337579368", "osm_id": "337579368", "place": "city", "namerus": "Северскодонецк", "name": "Сіверськодонецьк" }, "geometry": { "type": "Point", "coordinates": [ 38.4936475, 48.9478698 ] } },
{ "type": "Feature", "properties": { "full_id": "n337582086", "osm_id": "337582086", "place": "city", "namerus": "Лисичанск", "name": "Лисичанськ" }, "geometry": { "type": "Point", "coordinates": [ 38.4285981, 48.917267 ] } },
{ "type": "Feature", "properties": { "full_id": "n336140673", "osm_id": "336140673", "place": "city", "namerus": "Старый Оскол", "name": "Старый Оскол" }, "geometry": { "type": "Point", "coordinates": [ 37.833202, 51.298038 ] } },
{ "type": "Feature", "properties": { "full_id": "n337597818", "osm_id": "337597818", "place": "city", "namerus": "Днепр", "name": "Дніпро" }, "geometry": { "type": "Point", "coordinates": [ 35.0417711, 48.4680221 ] } },
{ "type": "Feature", "properties": { "full_id": "n255466573", "osm_id": "255466573", "place": "city", "namerus": "Херсон", "name": "Херсон" }, "geometry": { "type": "Point", "coordinates": [ 32.6143922, 46.6401295 ] } },
{ "type": "Feature", "properties": { "full_id": "n253877159", "osm_id": "253877159", "place": "city", "namerus": "Алчевск", "name": "Алчевськ" }, "geometry": { "type": "Point", "coordinates": [ 38.8010178, 48.4701987 ] } },
{ "type": "Feature", "properties": { "full_id": "n253874196", "osm_id": "253874196", "place": "city", "namerus": "Луганск", "name": "Луганськ" }, "geometry": { "type": "Point", "coordinates": [ 39.2973153, 48.5717084 ] } },
{ "type": "Feature", "properties": { "full_id": "n256613986", "osm_id": "256613986", "place": "city", "namerus": "Славянск", "name": "Слов’янськ" }, "geometry": { "type": "Point", "coordinates": [ 37.6058241, 48.8522691 ] } },
{ "type": "Feature", "properties": { "full_id": "n258057686", "osm_id": "258057686", "place": "city", "namerus": "Бердянск", "name": "Бердянськ" }, "geometry": { "type": "Point", "coordinates": [ 36.7887623, 46.755678 ] } },
{ "type": "Feature", "properties": { "full_id": "n256613740", "osm_id": "256613740", "place": "city", "namerus": "Горловка", "name": "Горлівка" }, "geometry": { "type": "Point", "coordinates": [ 38.0027664, 48.3058686 ] } },
{ "type": "Feature", "properties": { "full_id": "n256613930", "osm_id": "256613930", "place": "city", "namerus": "Макеевка", "name": "Макіївка" }, "geometry": { "type": "Point", "coordinates": [ 37.9635093, 48.0448144 ] } },
{ "type": "Feature", "properties": { "full_id": "n265058407", "osm_id": "265058407", "place": "city", "namerus": "Никополь", "name": "Нікополь" }, "geometry": { "type": "Point", "coordinates": [ 34.3917272, 47.5692061 ] } },
{ "type": "Feature", "properties": { "full_id": "n265059962", "osm_id": "265059962", "place": "city", "namerus": "Павлоград", "name": "Павлоград" }, "geometry": { "type": "Point", "coordinates": [ 35.8703695, 48.5316759 ] } },
{ "type": "Feature", "properties": { "full_id": "n265057614", "osm_id": "265057614", "place": "city", "namerus": "Сумы", "name": "Суми" }, "geometry": { "type": "Point", "coordinates": [ 34.8027723, 50.9119775 ] } },
{ "type": "Feature", "properties": { "full_id": "n6356600533", "osm_id": "6356600533", "place": null, "namerus": "Посёлок Моряков", "name": "Селище Моряків" }, "geometry": { "type": "Point", "coordinates": [ 37.4798122, 47.0450658 ] } },
{ "type": "Feature", "properties": { "full_id": "n274929523", "osm_id": "274929523", "place": "city", "namerus": "Краматорск", "name": "Краматорськ" }, "geometry": { "type": "Point", "coordinates": [ 37.5843812, 48.7389415 ] } },
{ "type": "Feature", "properties": { "full_id": "n27122612", "osm_id": "27122612", "place": "city", "namerus": "Запорожье", "name": "Запоріжжя" }, "geometry": { "type": "Point", "coordinates": [ 35.1182867, 47.8507859 ] } },
{ "type": "Feature", "properties": { "full_id": "n27090043", "osm_id": "27090043", "place": "city", "namerus": "Курск", "name": "Курск" }, "geometry": { "type": "Point", "coordinates": [ 36.1923123, 51.7309249 ] } },
{ "type": "Feature", "properties": { "full_id": "n27119039", "osm_id": "27119039", "place": "city", "namerus": "Белгород", "name": "Белгород" }, "geometry": { "type": "Point", "coordinates": [ 36.5873394, 50.5955595 ] } },
{ "type": "Feature", "properties": { "full_id": "n29980666", "osm_id": "29980666", "place": "city", "namerus": "Мариуполь", "name": "Маріуполь" }, "geometry": { "type": "Point", "coordinates": [ 37.5499621, 47.0957648 ] } },
{ "type": "Feature", "properties": { "full_id": "n39682896", "osm_id": "39682896", "place": "city", "namerus": "Донецк", "name": "Донецьк" }, "geometry": { "type": "Point", "coordinates": [ 37.8013407, 48.0158753 ] } },
{ "type": "Feature", "properties": { "full_id": "n2977448578", "osm_id": "2977448578", "place": null, "namerus": "Ул.Маршала Жукова", "name": "Ул.Маршала Жукова" }, "geometry": { "type": "Point", "coordinates": [ 37.9667766, 48.3172937 ] } },
{ "type": "Feature", "properties": { "full_id": "n2977448590", "osm_id": "2977448590", "place": null, "namerus": "Ул.Маршала Жукова", "name": "Маршала Жукова" }, "geometry": { "type": "Point", "coordinates": [ 37.9669942, 48.3161773 ] } },
{ "type": "Feature", "properties": { "full_id": "n2971377769", "osm_id": "2971377769", "place": "farm", "namerus": "Свиноферма", "name": "Свиноферми." }, "geometry": { "type": "Point", "coordinates": [ 37.6752226, 47.8900074 ] } },
{ "type": "Feature", "properties": { "full_id": "n11010171120", "osm_id": "11010171120", "place": "farm", "namerus": "Фермерское хозяйство \"Лидер\"", "name": "Фермерское хозяйство \"Лидер\"" }, "geometry": { "type": "Point", "coordinates": [ 37.6741593, 47.885123 ] } },
{ "type": "Feature", "properties": { "full_id": "n1461119065", "osm_id": "1461119065", "place": "hamlet", "namerus": "1-е Вереитиново", "name": "1-е Вереитиново" }, "geometry": { "type": "Point", "coordinates": [ 36.6183863, 52.0641866 ] } },
{ "type": "Feature", "properties": { "full_id": "n1455465846", "osm_id": "1455465846", "place": "hamlet", "namerus": "Жидеевка", "name": "Жидеевка" }, "geometry": { "type": "Point", "coordinates": [ 35.4500001, 52.1923663 ] } },
{ "type": "Feature", "properties": { "full_id": "n1463146978", "osm_id": "1463146978", "place": "hamlet", "namerus": "1-е Конево", "name": "1-е Конево" }, "geometry": { "type": "Point", "coordinates": [ 36.1356139, 52.0405952 ] } },
{ "type": "Feature", "properties": { "full_id": "n1466943873", "osm_id": "1466943873", "place": "hamlet", "namerus": "Спасовка", "name": "Спасовка" }, "geometry": { "type": "Point", "coordinates": [ 38.0717575, 51.69989 ] } },
{ "type": "Feature", "properties": { "full_id": "n1469663872", "osm_id": "1469663872", "place": "hamlet", "namerus": "Бяхово", "name": "Бяхово" }, "geometry": { "type": "Point", "coordinates": [ 34.8890426, 51.2614856 ] } },
{ "type": "Feature", "properties": { "full_id": "n1461216201", "osm_id": "1461216201", "place": "hamlet", "namerus": "1-е Уколово", "name": "1-е Уколово" }, "geometry": { "type": "Point", "coordinates": [ 36.4159117, 51.9926831 ] } },
{ "type": "Feature", "properties": { "full_id": "n1463047458", "osm_id": "1463047458", "place": "hamlet", "namerus": "1-е Скородное", "name": "1-е Скородное" }, "geometry": { "type": "Point", "coordinates": [ 36.2743163, 52.1261462 ] } },
{ "type": "Feature", "properties": { "full_id": "n1463000350", "osm_id": "1463000350", "place": "hamlet", "namerus": "1-е Боево", "name": "1-е Боево" }, "geometry": { "type": "Point", "coordinates": [ 36.1031699, 51.9765093 ] } },
{ "type": "Feature", "properties": { "full_id": "n1424924567", "osm_id": "1424924567", "place": "hamlet", "namerus": "Слободка Корочка", "name": "Слободка Корочка" }, "geometry": { "type": "Point", "coordinates": [ 35.717254, 51.1331375 ] } },
{ "type": "Feature", "properties": { "full_id": "n1425041126", "osm_id": "1425041126", "place": "hamlet", "namerus": "Чёрный Колодезь", "name": "Чёрный Колодезь" }, "geometry": { "type": "Point", "coordinates": [ 35.6340743, 51.8665298 ] } },
{ "type": "Feature", "properties": { "full_id": "n1425041127", "osm_id": "1425041127", "place": "hamlet", "namerus": "Ширково", "name": "Ширково" }, "geometry": { "type": "Point", "coordinates": [ 35.6693838, 51.8649559 ] } },
{ "type": "Feature", "properties": { "full_id": "n1425041117", "osm_id": "1425041117", "place": "hamlet", "namerus": "Русаново", "name": "Русаново" }, "geometry": { "type": "Point", "coordinates": [ 35.6415183, 51.8657785 ] } },
{ "type": "Feature", "properties": { "full_id": "n1425041123", "osm_id": "1425041123", "place": "hamlet", "namerus": "Троицкое", "name": "Троицкое" }, "geometry": { "type": "Point", "coordinates": [ 35.6171265, 51.8500171 ] } },
{ "type": "Feature", "properties": { "full_id": "n1425041115", "osm_id": "1425041115", "place": "hamlet", "namerus": "Дарница", "name": "Дарница" }, "geometry": { "type": "Point", "coordinates": [ 35.6267125, 51.8571666 ] } },
{ "type": "Feature", "properties": { "full_id": "n1425041116", "osm_id": "1425041116", "place": "hamlet", "namerus": "Николаевка", "name": "Николаевка" }, "geometry": { "type": "Point", "coordinates": [ 35.6395963, 51.8593985 ] } },
{ "type": "Feature", "properties": { "full_id": "n1423851987", "osm_id": "1423851987", "place": "hamlet", "namerus": "Воропаево", "name": "Воропаево" }, "geometry": { "type": "Point", "coordinates": [ 35.338264, 52.154224 ] } },
{ "type": "Feature", "properties": { "full_id": "n1423974227", "osm_id": "1423974227", "place": "hamlet", "namerus": "1-е Безлесное", "name": "1-е Безлесное" }, "geometry": { "type": "Point", "coordinates": [ 36.3060832, 51.5994874 ] } },
{ "type": "Feature", "properties": { "full_id": "n1423974236", "osm_id": "1423974236", "place": "hamlet", "namerus": "1-е Курасово", "name": "1-е Курасово" }, "geometry": { "type": "Point", "coordinates": [ 36.1444812, 51.8993559 ] } },
{ "type": "Feature", "properties": { "full_id": "n1426870858", "osm_id": "1426870858", "place": "hamlet", "namerus": "Заломное", "name": "Заломное" }, "geometry": { "type": "Point", "coordinates": [ 35.6834009, 51.2905403 ] } },
{ "type": "Feature", "properties": { "full_id": "n1426996568", "osm_id": "1426996568", "place": "hamlet", "namerus": "Медвежье", "name": "Медвежье" }, "geometry": { "type": "Point", "coordinates": [ 34.6770766, 51.2582985 ] } },
{ "type": "Feature", "properties": { "full_id": "n1427432851", "osm_id": "1427432851", "place": "hamlet", "namerus": "Тяжино", "name": "Тяжино" }, "geometry": { "type": "Point", "coordinates": [ 34.4119234, 51.3299578 ] } },
{ "type": "Feature", "properties": { "full_id": "n1427432881", "osm_id": "1427432881", "place": "hamlet", "namerus": "2-я Мужица", "name": "2-я Мужица" }, "geometry": { "type": "Point", "coordinates": [ 34.7785598, 51.2783367 ] } },
{ "type": "Feature", "properties": { "full_id": "n1427432672", "osm_id": "1427432672", "place": "hamlet", "namerus": "Глушково", "name": "Глушково" }, "geometry": { "type": "Point", "coordinates": [ 34.729893, 51.286606 ] } },
{ "type": "Feature", "properties": { "full_id": "n1427432719", "osm_id": "1427432719", "place": "hamlet", "namerus": "Ольхожемчугов", "name": "Ольхожемчугов" }, "geometry": { "type": "Point", "coordinates": [ 34.4334775, 51.3008341 ] } },
{ "type": "Feature", "properties": { "full_id": "n1427433314", "osm_id": "1427433314", "place": "hamlet", "namerus": "Заболотовка", "name": "Заболотовка" }, "geometry": { "type": "Point", "coordinates": [ 34.3874294, 51.3400927 ] } },
{ "type": "Feature", "properties": { "full_id": "n1425068390", "osm_id": "1425068390", "place": "hamlet", "namerus": "Махов Колодезь", "name": "Махов Колодезь" }, "geometry": { "type": "Point", "coordinates": [ 35.546795, 51.276291 ] } },
{ "type": "Feature", "properties": { "full_id": "n1425068421", "osm_id": "1425068421", "place": "hamlet", "namerus": "1-е Мальцево", "name": "1-е Мальцево" }, "geometry": { "type": "Point", "coordinates": [ 35.6518511, 51.5152427 ] } },
{ "type": "Feature", "properties": { "full_id": "n1425816548", "osm_id": "1425816548", "place": "hamlet", "namerus": "Бычки", "name": "Бычки" }, "geometry": { "type": "Point", "coordinates": [ 35.0116842, 52.2298328 ] } },
{ "type": "Feature", "properties": { "full_id": "n1425816550", "osm_id": "1425816550", "place": "hamlet", "namerus": "Красный Клин", "name": "Красный Клин" }, "geometry": { "type": "Point", "coordinates": [ 34.903072, 52.204704 ] } },
{ "type": "Feature", "properties": { "full_id": "n1425816554", "osm_id": "1425816554", "place": "hamlet", "namerus": "Пристанционный", "name": "Пристанционный" }, "geometry": { "type": "Point", "coordinates": [ 34.9933418, 52.2104478 ] } },
{ "type": "Feature", "properties": { "full_id": "n1426261941", "osm_id": "1426261941", "place": "hamlet", "namerus": "Шапошниково", "name": "Шапошниково" }, "geometry": { "type": "Point", "coordinates": [ 35.24977, 51.4301004 ] } },
{ "type": "Feature", "properties": { "full_id": "n1426261979", "osm_id": "1426261979", "place": "hamlet", "namerus": "Яблоновый", "name": "Яблоновый" }, "geometry": { "type": "Point", "coordinates": [ 35.3463976, 51.5240398 ] } },
{ "type": "Feature", "properties": { "full_id": "n1426261868", "osm_id": "1426261868", "place": "hamlet", "namerus": "Расстрыгино", "name": "Расстрыгино" }, "geometry": { "type": "Point", "coordinates": [ 35.2300042, 52.1141665 ] } },
{ "type": "Feature", "properties": { "full_id": "n1426261914", "osm_id": "1426261914", "place": "hamlet", "namerus": "Снижа", "name": "Снижа" }, "geometry": { "type": "Point", "coordinates": [ 35.1918268, 52.1210461 ] } },
{ "type": "Feature", "properties": { "full_id": "n1426261817", "osm_id": "1426261817", "place": "hamlet", "namerus": "Клесово", "name": "Клесово" }, "geometry": { "type": "Point", "coordinates": [ 35.5333213, 51.8742093 ] } },
{ "type": "Feature", "properties": { "full_id": "n1426261849", "osm_id": "1426261849", "place": "hamlet", "namerus": "Орлово-Никольский", "name": "Орлово-Никольский" }, "geometry": { "type": "Point", "coordinates": [ 34.7755174, 52.0495621 ] } },
{ "type": "Feature", "properties": { "full_id": "n1426261725", "osm_id": "1426261725", "place": "hamlet", "namerus": "Большое Городьково", "name": "Большое Городьково" }, "geometry": { "type": "Point", "coordinates": [ 35.5691564, 51.8843862 ] } },
{ "type": "Feature", "properties": { "full_id": "n1426261750", "osm_id": "1426261750", "place": "hamlet", "namerus": "Глубое", "name": "Глубое" }, "geometry": { "type": "Point", "coordinates": [ 34.7500183, 52.0575847 ] } },
{ "type": "Feature", "properties": { "full_id": "n1426349727", "osm_id": "1426349727", "place": "hamlet", "namerus": "Татарка", "name": "Татарка" }, "geometry": { "type": "Point", "coordinates": [ 35.108743, 52.1222737 ] } },
{ "type": "Feature", "properties": { "full_id": "n1426816254", "osm_id": "1426816254", "place": "hamlet", "namerus": "Булгаковка", "name": "Булгаковка" }, "geometry": { "type": "Point", "coordinates": [ 35.3183227, 51.9866533 ] } },
{ "type": "Feature", "properties": { "full_id": "n1426349718", "osm_id": "1426349718", "place": "hamlet", "namerus": "Рогозна", "name": "Рогозна" }, "geometry": { "type": "Point", "coordinates": [ 35.09, 52.0796 ] } },
{ "type": "Feature", "properties": { "full_id": "n1426349721", "osm_id": "1426349721", "place": "hamlet", "namerus": "Старая Першина", "name": "Старая Першина" }, "geometry": { "type": "Point", "coordinates": [ 35.1328334, 52.0972155 ] } },
{ "type": "Feature", "properties": { "full_id": "n1426349704", "osm_id": "1426349704", "place": "hamlet", "namerus": "Куток", "name": "Куток" }, "geometry": { "type": "Point", "coordinates": [ 35.1687506, 52.0629529 ] } },
{ "type": "Feature", "properties": { "full_id": "n1426349713", "osm_id": "1426349713", "place": "hamlet", "namerus": "Ладыгино", "name": "Ладыгино" }, "geometry": { "type": "Point", "coordinates": [ 35.0953548, 52.1314226 ] } },
{ "type": "Feature", "properties": { "full_id": "n1426349687", "osm_id": "1426349687", "place": "hamlet", "namerus": "Борки", "name": "Борки" }, "geometry": { "type": "Point", "coordinates": [ 35.0918238, 52.097725 ] } },
{ "type": "Feature", "properties": { "full_id": "n1426349699", "osm_id": "1426349699", "place": "hamlet", "namerus": "Горелое", "name": "Горелое" }, "geometry": { "type": "Point", "coordinates": [ 35.0996347, 52.0926493 ] } },
{ "type": "Feature", "properties": { "full_id": "n1427902129", "osm_id": "1427902129", "place": "hamlet", "namerus": "Бырдин", "name": "Бырдин" }, "geometry": { "type": "Point", "coordinates": [ 34.3496388, 51.3204114 ] } },
{ "type": "Feature", "properties": { "full_id": "n1427901938", "osm_id": "1427901938", "place": "hamlet", "namerus": "Заря", "name": "Заря" }, "geometry": { "type": "Point", "coordinates": [ 34.3935841, 51.2843504 ] } },
{ "type": "Feature", "properties": { "full_id": "n1436110983", "osm_id": "1436110983", "place": "hamlet", "namerus": "Семенихина", "name": "Семенихина" }, "geometry": { "type": "Point", "coordinates": [ 35.8707474, 51.6429768 ] } },
{ "type": "Feature", "properties": { "full_id": "n1436121889", "osm_id": "1436121889", "place": "hamlet", "namerus": "Адоева", "name": "Адоева" }, "geometry": { "type": "Point", "coordinates": [ 35.9118105, 51.6150876 ] } },
{ "type": "Feature", "properties": { "full_id": "n1436121893", "osm_id": "1436121893", "place": "hamlet", "namerus": "Свиридова", "name": "Свиридова" }, "geometry": { "type": "Point", "coordinates": [ 35.9300766, 51.5802877 ] } },
{ "type": "Feature", "properties": { "full_id": "n1436350751", "osm_id": "1436350751", "place": "hamlet", "namerus": "Бекетовский", "name": "Бекетовский" }, "geometry": { "type": "Point", "coordinates": [ 37.857033, 51.453964 ] } },
{ "type": "Feature", "properties": { "full_id": "n1436121890", "osm_id": "1436121890", "place": "hamlet", "namerus": "Журавлинский", "name": "Журавлинский" }, "geometry": { "type": "Point", "coordinates": [ 35.937012, 51.5712712 ] } },
{ "type": "Feature", "properties": { "full_id": "n1436121891", "osm_id": "1436121891", "place": "hamlet", "namerus": "Лютчина", "name": "Лютчина" }, "geometry": { "type": "Point", "coordinates": [ 35.9197354, 51.5945776 ] } },
{ "type": "Feature", "properties": { "full_id": "n1436786132", "osm_id": "1436786132", "place": "hamlet", "namerus": "Большие Сети", "name": "Большие Сети" }, "geometry": { "type": "Point", "coordinates": [ 36.9040458, 51.2001959 ] } },
{ "type": "Feature", "properties": { "full_id": "n1436800916", "osm_id": "1436800916", "place": "hamlet", "namerus": "Большие Крюки", "name": "Большие Крюки" }, "geometry": { "type": "Point", "coordinates": [ 36.434188, 51.3299807 ] } },
{ "type": "Feature", "properties": { "full_id": "n1436732605", "osm_id": "1436732605", "place": "hamlet", "namerus": "Кораблёва", "name": "Кораблёва" }, "geometry": { "type": "Point", "coordinates": [ 35.8389043, 51.6387162 ] } },
{ "type": "Feature", "properties": { "full_id": "n1436732643", "osm_id": "1436732643", "place": "hamlet", "namerus": "Лозовское", "name": "Лозовское" }, "geometry": { "type": "Point", "coordinates": [ 35.8118025, 51.6495691 ] } },
{ "type": "Feature", "properties": { "full_id": "n1436732570", "osm_id": "1436732570", "place": "hamlet", "namerus": "Катырина", "name": "Катырина" }, "geometry": { "type": "Point", "coordinates": [ 35.7900646, 51.6600102 ] } },
{ "type": "Feature", "properties": { "full_id": "n1436898504", "osm_id": "1436898504", "place": "hamlet", "namerus": "Николаевка", "name": "Николаевка" }, "geometry": { "type": "Point", "coordinates": [ 37.89235, 51.6589505 ] } },
{ "type": "Feature", "properties": { "full_id": "n1436800955", "osm_id": "1436800955", "place": "hamlet", "namerus": "Верхнее Котово", "name": "Верхнее Котово" }, "geometry": { "type": "Point", "coordinates": [ 36.4624696, 51.328181 ] } },
{ "type": "Feature", "properties": { "full_id": "n337676726", "osm_id": "337676726", "place": "hamlet", "namerus": "Терноватое", "name": "Тернувате" }, "geometry": { "type": "Point", "coordinates": [ 35.568241, 47.426601 ] } },
{ "type": "Feature", "properties": { "full_id": "n337676603", "osm_id": "337676603", "place": "hamlet", "namerus": "Ровное", "name": "Рівне" }, "geometry": { "type": "Point", "coordinates": [ 35.724098, 47.433472 ] } },
{ "type": "Feature", "properties": { "full_id": "n337677020", "osm_id": "337677020", "place": "hamlet", "namerus": "Веремиевка", "name": "Вереміївка" }, "geometry": { "type": "Point", "coordinates": [ 33.567383, 47.404148 ] } },
{ "type": "Feature", "properties": { "full_id": "n337676791", "osm_id": "337676791", "place": "hamlet", "namerus": "Новомихайлов", "name": "Новомихайлів" }, "geometry": { "type": "Point", "coordinates": [ 33.037727, 47.422577 ] } },
{ "type": "Feature", "properties": { "full_id": "n337677098", "osm_id": "337677098", "place": "hamlet", "namerus": "Бабино", "name": "Бабине" }, "geometry": { "type": "Point", "coordinates": [ 34.048351, 47.401878 ] } },
{ "type": "Feature", "properties": { "full_id": "n337678000", "osm_id": "337678000", "place": "hamlet", "namerus": "Новознаменка", "name": "Новознам’янка" }, "geometry": { "type": "Point", "coordinates": [ 34.229961, 47.35725 ] } },
{ "type": "Feature", "properties": { "full_id": "n337677705", "osm_id": "337677705", "place": "hamlet", "namerus": "Новая Дача", "name": "Нова Дача" }, "geometry": { "type": "Point", "coordinates": [ 36.3567872, 47.3719796 ] } },
{ "type": "Feature", "properties": { "full_id": "n337677518", "osm_id": "337677518", "place": "hamlet", "namerus": "Дмитровское", "name": "Дмитрівське" }, "geometry": { "type": "Point", "coordinates": [ 36.329731, 47.3806 ] } },
{ "type": "Feature", "properties": { "full_id": "n337677378", "osm_id": "337677378", "place": "hamlet", "namerus": "Владимировка", "name": "Володимирівка" }, "geometry": { "type": "Point", "coordinates": [ 35.456661, 47.38781 ] } },
{ "type": "Feature", "properties": { "full_id": "n337678380", "osm_id": "337678380", "place": "hamlet", "namerus": "Таврийское", "name": "Таврійське" }, "geometry": { "type": "Point", "coordinates": [ 34.148872, 47.335236 ] } },
{ "type": "Feature", "properties": { "full_id": "n337678861", "osm_id": "337678861", "place": "hamlet", "namerus": "Новокаменка", "name": "Новокам’янка" }, "geometry": { "type": "Point", "coordinates": [ 36.6962667, 47.3152425 ] } },
{ "type": "Feature", "properties": { "full_id": "n337678768", "osm_id": "337678768", "place": "hamlet", "namerus": "Трудовик", "name": "Трудовик" }, "geometry": { "type": "Point", "coordinates": [ 35.342331, 47.313992 ] } },
{ "type": "Feature", "properties": { "full_id": "n337678553", "osm_id": "337678553", "place": "hamlet", "namerus": "Петровка", "name": "Петрівка" }, "geometry": { "type": "Point", "coordinates": [ 35.315208, 47.328072 ] } },
{ "type": "Feature", "properties": { "full_id": "n337678495", "osm_id": "337678495", "place": "hamlet", "namerus": "Зразковое", "name": "Зразкове" }, "geometry": { "type": "Point", "coordinates": [ 36.4469707, 47.3310023 ] } },
{ "type": "Feature", "properties": { "full_id": "n337679240", "osm_id": "337679240", "place": "hamlet", "namerus": "Алексеевка", "name": "Олексіївка" }, "geometry": { "type": "Point", "coordinates": [ 34.2472564, 47.2910506 ] } },
{ "type": "Feature", "properties": { "full_id": "n337679315", "osm_id": "337679315", "place": "hamlet", "namerus": "Заря", "name": "Зоря" }, "geometry": { "type": "Point", "coordinates": [ 34.280781, 47.28413 ] } },
{ "type": "Feature", "properties": { "full_id": "n337679124", "osm_id": "337679124", "place": "hamlet", "namerus": "Георгиевка", "name": "Георгіївка" }, "geometry": { "type": "Point", "coordinates": [ 34.243351, 47.297508 ] } },
{ "type": "Feature", "properties": { "full_id": "n337679052", "osm_id": "337679052", "place": "hamlet", "namerus": "Майское", "name": "Майське" }, "geometry": { "type": "Point", "coordinates": [ 33.526344, 47.298752 ] } },
{ "type": "Feature", "properties": { "full_id": "n337679106", "osm_id": "337679106", "place": "hamlet", "namerus": "Степовое", "name": "Степове" }, "geometry": { "type": "Point", "coordinates": [ 34.515953, 47.298271 ] } },
{ "type": "Feature", "properties": { "full_id": "n337678952", "osm_id": "337678952", "place": "hamlet", "namerus": "Верхнедрагунское", "name": "Верхньодрагунське" }, "geometry": { "type": "Point", "coordinates": [ 36.4409424, 47.3032653 ] } },
{ "type": "Feature", "properties": { "full_id": "n337679475", "osm_id": "337679475", "place": "hamlet", "namerus": "Качкаровка", "name": "Качкарівка" }, "geometry": { "type": "Point", "coordinates": [ 34.5899179, 47.2735185 ] } },
{ "type": "Feature", "properties": { "full_id": "n337679367", "osm_id": "337679367", "place": "hamlet", "namerus": "Трудовик", "name": "Трудовик" }, "geometry": { "type": "Point", "coordinates": [ 34.277596, 47.281254 ] } },
{ "type": "Feature", "properties": { "full_id": "n337679403", "osm_id": "337679403", "place": "hamlet", "namerus": "Новоалексеевка", "name": "Новоолексіївка" }, "geometry": { "type": "Point", "coordinates": [ 34.29863, 47.27692 ] } },
{ "type": "Feature", "properties": { "full_id": "n337673855", "osm_id": "337673855", "place": "hamlet", "namerus": "Межирич", "name": "Межиріч" }, "geometry": { "type": "Point", "coordinates": [ 36.416241, 47.60342 ] } },
{ "type": "Feature", "properties": { "full_id": "n337673729", "osm_id": "337673729", "place": "hamlet", "namerus": "Красное", "name": "Красне" }, "geometry": { "type": "Point", "coordinates": [ 34.081787, 47.609379 ] } },
{ "type": "Feature", "properties": { "full_id": "n337674056", "osm_id": "337674056", "place": "hamlet", "namerus": "Верховка", "name": "Верхівка" }, "geometry": { "type": "Point", "coordinates": [ 36.73897, 47.59277 ] } },
{ "type": "Feature", "properties": { "full_id": "n337674441", "osm_id": "337674441", "place": "hamlet", "namerus": "Бурлацкое", "name": "Бурлацьке" }, "geometry": { "type": "Point", "coordinates": [ 36.6165368, 47.5730875 ] } },
{ "type": "Feature", "properties": { "full_id": "n337674465", "osm_id": "337674465", "place": "hamlet", "namerus": "Загорное", "name": "Загірне" }, "geometry": { "type": "Point", "coordinates": [ 36.1732904, 47.5676064 ] } },
{ "type": "Feature", "properties": { "full_id": "n337674391", "osm_id": "337674391", "place": "hamlet", "namerus": "Городоватка", "name": "Городуватка" }, "geometry": { "type": "Point", "coordinates": [ 33.175964, 47.571892 ] } },
{ "type": "Feature", "properties": { "full_id": "n337675567", "osm_id": "337675567", "place": "hamlet", "namerus": "Коновалова", "name": "Коновалова" }, "geometry": { "type": "Point", "coordinates": [ 35.542831, 47.49184 ] } },
{ "type": "Feature", "properties": { "full_id": "n337675555", "osm_id": "337675555", "place": "hamlet", "namerus": "Терновое", "name": "Тернове" }, "geometry": { "type": "Point", "coordinates": [ 36.587559, 47.49287 ] } },
{ "type": "Feature", "properties": { "full_id": "n337675858", "osm_id": "337675858", "place": "hamlet", "namerus": "Березовка", "name": "Березівка" }, "geometry": { "type": "Point", "coordinates": [ 36.5874702, 47.4782036 ] } },
{ "type": "Feature", "properties": { "full_id": "n337676559", "osm_id": "337676559", "place": "hamlet", "namerus": "Степовое", "name": "Степове" }, "geometry": { "type": "Point", "coordinates": [ 35.596729, 47.436562 ] } },
{ "type": "Feature", "properties": { "full_id": "n337676578", "osm_id": "337676578", "place": "hamlet", "namerus": "Шляховое", "name": "Шляхове" }, "geometry": { "type": "Point", "coordinates": [ 34.8679834, 47.4354057 ] } },
{ "type": "Feature", "properties": { "full_id": "n337676518", "osm_id": "337676518", "place": "hamlet", "namerus": "Весёлое", "name": "Веселе" }, "geometry": { "type": "Point", "coordinates": [ 33.0434299, 47.4390662 ] } },
{ "type": "Feature", "properties": { "full_id": "n337676272", "osm_id": "337676272", "place": "hamlet", "namerus": "Веселоивановское", "name": "Веселоіванівське" }, "geometry": { "type": "Point", "coordinates": [ 36.6296619, 47.4538313 ] } },
{ "type": "Feature", "properties": { "full_id": "n337684782", "osm_id": "337684782", "place": "hamlet", "namerus": "Чеховка", "name": "Чеховка" }, "geometry": { "type": "Point", "coordinates": [ 34.6037592, 46.9618738 ] } },
{ "type": "Feature", "properties": { "full_id": "n337684787", "osm_id": "337684787", "place": "hamlet", "namerus": "Кочубеевка", "name": "Кочубеївка" }, "geometry": { "type": "Point", "coordinates": [ 33.9176886, 46.9541599 ] } },
{ "type": "Feature", "properties": { "full_id": "n337684740", "osm_id": "337684740", "place": "hamlet", "namerus": "Весёлое", "name": "Веселе" }, "geometry": { "type": "Point", "coordinates": [ 34.0592853, 46.9617087 ] } },
{ "type": "Feature", "properties": { "full_id": "n337684641", "osm_id": "337684641", "place": "hamlet", "namerus": "Пивденное", "name": "Південне" }, "geometry": { "type": "Point", "coordinates": [ 35.209808, 46.965858 ] } },
{ "type": "Feature", "properties": { "full_id": "n337685088", "osm_id": "337685088", "place": "hamlet", "namerus": "Зелёный Под", "name": "Зелений Под" }, "geometry": { "type": "Point", "coordinates": [ 33.8876917, 46.9394956 ] } },
{ "type": "Feature", "properties": { "full_id": "n337684991", "osm_id": "337684991", "place": "hamlet", "namerus": "Зерновое", "name": "Зернове" }, "geometry": { "type": "Point", "coordinates": [ 34.690082, 46.9432378 ] } },
{ "type": "Feature", "properties": { "full_id": "n337685283", "osm_id": "337685283", "place": "hamlet", "namerus": "Новые Олешки", "name": "Нові Олешки" }, "geometry": { "type": "Point", "coordinates": [ 34.05624, 46.917461 ] } },
{ "type": "Feature", "properties": { "full_id": "n337685269", "osm_id": "337685269", "place": "hamlet", "namerus": "Громовка", "name": "Громівка" }, "geometry": { "type": "Point", "coordinates": [ 36.0421277, 46.9191146 ] } },
{ "type": "Feature", "properties": { "full_id": "n337685700", "osm_id": "337685700", "place": "hamlet", "namerus": "Партизаны", "name": "Партизани" }, "geometry": { "type": "Point", "coordinates": [ 34.683842, 46.889648 ] } },
{ "type": "Feature", "properties": { "full_id": "n337685434", "osm_id": "337685434", "place": "hamlet", "namerus": "Зеленчук", "name": "Зеленчук" }, "geometry": { "type": "Point", "coordinates": [ 35.1075275, 46.9032087 ] } },
{ "type": "Feature", "properties": { "full_id": "n337685479", "osm_id": "337685479", "place": "hamlet", "namerus": "Софиевка", "name": "Софіївка" }, "geometry": { "type": "Point", "coordinates": [ 34.102928, 46.900291 ] } },
{ "type": "Feature", "properties": { "full_id": "n337686533", "osm_id": "337686533", "place": "hamlet", "namerus": "Ясная Поляна", "name": "Ясна Поляна" }, "geometry": { "type": "Point", "coordinates": [ 32.804489, 46.8148 ] } },
{ "type": "Feature", "properties": { "full_id": "n337686261", "osm_id": "337686261", "place": "hamlet", "namerus": "Новая Благовещенка", "name": "Нова Благовіщенка" }, "geometry": { "type": "Point", "coordinates": [ 34.1718789, 46.8457671 ] } },
{ "type": "Feature", "properties": { "full_id": "n337686126", "osm_id": "337686126", "place": "hamlet", "namerus": "Василевка", "name": "Василівка" }, "geometry": { "type": "Point", "coordinates": [ 34.123878, 46.85326 ] } },
{ "type": "Feature", "properties": { "full_id": "n337686163", "osm_id": "337686163", "place": "hamlet", "namerus": "Змагання", "name": "Змагання" }, "geometry": { "type": "Point", "coordinates": [ 34.6713477, 46.8431124 ] } },
{ "type": "Feature", "properties": { "full_id": "n337685986", "osm_id": "337685986", "place": "hamlet", "namerus": "Новорогачинское", "name": "Новорогачинське" }, "geometry": { "type": "Point", "coordinates": [ 34.7352649, 46.8663752 ] } },
{ "type": "Feature", "properties": { "full_id": "n337686072", "osm_id": "337686072", "place": "hamlet", "namerus": "Запорожское", "name": "Запорізьке" }, "geometry": { "type": "Point", "coordinates": [ 33.937111, 46.856689 ] } },
{ "type": "Feature", "properties": { "full_id": "n337686989", "osm_id": "337686989", "place": "hamlet", "namerus": "Лукьяновка", "name": "Лук’янівка" }, "geometry": { "type": "Point", "coordinates": [ 33.644886, 46.779118 ] } },
{ "type": "Feature", "properties": { "full_id": "n337686852", "osm_id": "337686852", "place": "hamlet", "namerus": "Широкая Балка", "name": "Широка Балка" }, "geometry": { "type": "Point", "coordinates": [ 34.5324715, 46.7914016 ] } },
{ "type": "Feature", "properties": { "full_id": "n337686623", "osm_id": "337686623", "place": "hamlet", "namerus": "Новоелизаветовка", "name": "Новоєлизаветівка" }, "geometry": { "type": "Point", "coordinates": [ 34.014359, 46.806221 ] } },
{ "type": "Feature", "properties": { "full_id": "n337686632", "osm_id": "337686632", "place": "hamlet", "namerus": "Николаевка", "name": "Миколаївка" }, "geometry": { "type": "Point", "coordinates": [ 33.8570356, 46.8035421 ] } },
{ "type": "Feature", "properties": { "full_id": "n337687337", "osm_id": "337687337", "place": "hamlet", "namerus": "Захаровка", "name": "Захарівка" }, "geometry": { "type": "Point", "coordinates": [ 34.3232794, 46.747775 ] } },
{ "type": "Feature", "properties": { "full_id": "n337687352", "osm_id": "337687352", "place": "hamlet", "namerus": "Верховина", "name": "Верховина" }, "geometry": { "type": "Point", "coordinates": [ 34.967758, 46.747169 ] } },
{ "type": "Feature", "properties": { "full_id": "n337687029", "osm_id": "337687029", "place": "hamlet", "namerus": "Новодмитровка Первая", "name": "Новодмитрівка Перша" }, "geometry": { "type": "Point", "coordinates": [ 34.366951, 46.773949 ] } },
{ "type": "Feature", "properties": { "full_id": "n337687892", "osm_id": "337687892", "place": "hamlet", "namerus": "Сокирки", "name": "Сокирки" }, "geometry": { "type": "Point", "coordinates": [ 33.908802, 46.703709 ] } },
{ "type": "Feature", "properties": { "full_id": "n337687807", "osm_id": "337687807", "place": "hamlet", "namerus": "Просторое", "name": "Просторе" }, "geometry": { "type": "Point", "coordinates": [ 33.69236, 46.709354 ] } },
{ "type": "Feature", "properties": { "full_id": "n337687813", "osm_id": "337687813", "place": "hamlet", "namerus": "Веселовка", "name": "Веселівка" }, "geometry": { "type": "Point", "coordinates": [ 34.4431483, 46.7110512 ] } },
{ "type": "Feature", "properties": { "full_id": "n337687588", "osm_id": "337687588", "place": "hamlet", "namerus": "Счастливое", "name": "Щасливе" }, "geometry": { "type": "Point", "coordinates": [ 34.405399, 46.729321 ] } },
{ "type": "Feature", "properties": { "full_id": "n337687724", "osm_id": "337687724", "place": "hamlet", "namerus": "Дальнее", "name": "Дальнє" }, "geometry": { "type": "Point", "coordinates": [ 34.0594158, 46.7170977 ] } },
{ "type": "Feature", "properties": { "full_id": "n337687571", "osm_id": "337687571", "place": "hamlet", "namerus": "Диброва", "name": "Діброва" }, "geometry": { "type": "Point", "coordinates": [ 33.7627465, 46.7323062 ] } },
{ "type": "Feature", "properties": { "full_id": "n337680319", "osm_id": "337680319", "place": "hamlet", "namerus": "Суворое", "name": "Суворе" }, "geometry": { "type": "Point", "coordinates": [ 35.449791, 47.223358 ] } },
{ "type": "Feature", "properties": { "full_id": "n337680340", "osm_id": "337680340", "place": "hamlet", "namerus": "Владимировка", "name": "Володимирівка" }, "geometry": { "type": "Point", "coordinates": [ 34.466171, 47.223011 ] } },
{ "type": "Feature", "properties": { "full_id": "n337679967", "osm_id": "337679967", "place": "hamlet", "namerus": "Кожемяки", "name": "Кожум’яки" }, "geometry": { "type": "Point", "coordinates": [ 34.227219, 47.246361 ] } },
{ "type": "Feature", "properties": { "full_id": "n337680149", "osm_id": "337680149", "place": "hamlet", "namerus": "Зелёная Балка", "name": "Зелена Балка" }, "geometry": { "type": "Point", "coordinates": [ 34.5261121, 47.2393229 ] } },
{ "type": "Feature", "properties": { "full_id": "n337679917", "osm_id": "337679917", "place": "hamlet", "namerus": "Вишнёвое", "name": "Вишневе" }, "geometry": { "type": "Point", "coordinates": [ 34.457138, 47.249332 ] } },
{ "type": "Feature", "properties": { "full_id": "n337679641", "osm_id": "337679641", "place": "hamlet", "namerus": "Сергеевка", "name": "Сергіївка" }, "geometry": { "type": "Point", "coordinates": [ 33.998909, 47.2673 ] } },
{ "type": "Feature", "properties": { "full_id": "n337679725", "osm_id": "337679725", "place": "hamlet", "namerus": "Дмитровка", "name": "Дмитрівка" }, "geometry": { "type": "Point", "coordinates": [ 34.16679, 47.26421 ] } },
{ "type": "Feature", "properties": { "full_id": "n337681432", "osm_id": "337681432", "place": "hamlet", "namerus": "Сачки", "name": "Сачки" }, "geometry": { "type": "Point", "coordinates": [ 36.8977909, 47.1696855 ] } },
{ "type": "Feature", "properties": { "full_id": "n337680840", "osm_id": "337680840", "place": "hamlet", "namerus": "Лозовое", "name": "Лозове" }, "geometry": { "type": "Point", "coordinates": [ 33.0690473, 47.1927184 ] } },
{ "type": "Feature", "properties": { "full_id": "n337681839", "osm_id": "337681839", "place": "hamlet", "namerus": "Долбино", "name": "Довбине" }, "geometry": { "type": "Point", "coordinates": [ 36.9585449, 47.1475581 ] } },
{ "type": "Feature", "properties": { "full_id": "n337681778", "osm_id": "337681778", "place": "hamlet", "namerus": "Лисичье", "name": "Лисиче" }, "geometry": { "type": "Point", "coordinates": [ 34.48505, 47.15126 ] } },
{ "type": "Feature", "properties": { "full_id": "n337682507", "osm_id": "337682507", "place": "hamlet", "namerus": "Котляровка", "name": "Котлярівка" }, "geometry": { "type": "Point", "coordinates": [ 36.25317, 47.119331 ] } },
{ "type": "Feature", "properties": { "full_id": "n337682672", "osm_id": "337682672", "place": "hamlet", "namerus": "Першостепановка", "name": "Першостепанівка" }, "geometry": { "type": "Point", "coordinates": [ 35.37804, 47.111431 ] } },
{ "type": "Feature", "properties": { "full_id": "n337683235", "osm_id": "337683235", "place": "hamlet", "namerus": "Новосельское", "name": "Новосільське" }, "geometry": { "type": "Point", "coordinates": [ 36.4727827, 47.0744669 ] } },
{ "type": "Feature", "properties": { "full_id": "n337683186", "osm_id": "337683186", "place": "hamlet", "namerus": "Запорожье", "name": "Запоріжжя" }, "geometry": { "type": "Point", "coordinates": [ 34.380001, 47.078129 ] } },
{ "type": "Feature", "properties": { "full_id": "n337682902", "osm_id": "337682902", "place": "hamlet", "namerus": "Сахно", "name": "Сахно" }, "geometry": { "type": "Point", "coordinates": [ 36.4696371, 47.0971763 ] } },
{ "type": "Feature", "properties": { "full_id": "n337683558", "osm_id": "337683558", "place": "hamlet", "namerus": "Дахно", "name": "Дахно" }, "geometry": { "type": "Point", "coordinates": [ 36.4738211, 47.0565458 ] } },
{ "type": "Feature", "properties": { "full_id": "n337683504", "osm_id": "337683504", "place": "hamlet", "namerus": "Догмаровка", "name": "Догмарівка" }, "geometry": { "type": "Point", "coordinates": [ 34.537922, 47.05616 ] } },
{ "type": "Feature", "properties": { "full_id": "n337683778", "osm_id": "337683778", "place": "hamlet", "namerus": "Косаковка", "name": "Косаківка" }, "geometry": { "type": "Point", "coordinates": [ 34.358021, 47.030411 ] } },
{ "type": "Feature", "properties": { "full_id": "n337683951", "osm_id": "337683951", "place": "hamlet", "namerus": "Лопатки", "name": "Лопатки" }, "geometry": { "type": "Point", "coordinates": [ 33.990318, 47.018051 ] } },
{ "type": "Feature", "properties": { "full_id": "n337683705", "osm_id": "337683705", "place": "hamlet", "namerus": "Криничанка", "name": "Криничанка" }, "geometry": { "type": "Point", "coordinates": [ 33.201591, 47.039768 ] } },
{ "type": "Feature", "properties": { "full_id": "n337683650", "osm_id": "337683650", "place": "hamlet", "namerus": "Волошково", "name": "Волошкове" }, "geometry": { "type": "Point", "coordinates": [ 35.663681, 47.044491 ] } },
{ "type": "Feature", "properties": { "full_id": "n337683671", "osm_id": "337683671", "place": "hamlet", "namerus": "Среднее", "name": "Середнє" }, "geometry": { "type": "Point", "coordinates": [ 33.96801, 47.041401 ] } },
{ "type": "Feature", "properties": { "full_id": "n337684266", "osm_id": "337684266", "place": "hamlet", "namerus": "Ясная Поляна", "name": "Ясна Поляна" }, "geometry": { "type": "Point", "coordinates": [ 34.006458, 46.990929 ] } },
{ "type": "Feature", "properties": { "full_id": "n337684318", "osm_id": "337684318", "place": "hamlet", "namerus": "Вольное", "name": "Вільне" }, "geometry": { "type": "Point", "coordinates": [ 33.894192, 46.987492 ] } },
{ "type": "Feature", "properties": { "full_id": "n337684054", "osm_id": "337684054", "place": "hamlet", "namerus": "Богдановка", "name": "Богданівка" }, "geometry": { "type": "Point", "coordinates": [ 34.557152, 47.008091 ] } },
{ "type": "Feature", "properties": { "full_id": "n337684009", "osm_id": "337684009", "place": "hamlet", "namerus": "Коза", "name": "Коза" }, "geometry": { "type": "Point", "coordinates": [ 36.4990906, 47.0112447 ] } },
{ "type": "Feature", "properties": { "full_id": "n337684041", "osm_id": "337684041", "place": "hamlet", "namerus": "Красавич", "name": "Красавич" }, "geometry": { "type": "Point", "coordinates": [ 34.750778, 47.008781 ] } },
{ "type": "Feature", "properties": { "full_id": "n337691056", "osm_id": "337691056", "place": "hamlet", "namerus": "Черноморские Криницы", "name": "Чорноморські Криниці" }, "geometry": { "type": "Point", "coordinates": [ 32.0968175, 46.277786 ] } },
{ "type": "Feature", "properties": { "full_id": "n337691061", "osm_id": "337691061", "place": "hamlet", "namerus": "Беленькое", "name": "Біленьке" }, "geometry": { "type": "Point", "coordinates": [ 32.78801, 46.27682 ] } },
{ "type": "Feature", "properties": { "full_id": "n337691007", "osm_id": "337691007", "place": "hamlet", "namerus": "Вольная Украина", "name": "Вільна Україна" }, "geometry": { "type": "Point", "coordinates": [ 32.0639688, 46.2848613 ] } },
{ "type": "Feature", "properties": { "full_id": "n337691032", "osm_id": "337691032", "place": "hamlet", "namerus": "Боевое", "name": "Бойове" }, "geometry": { "type": "Point", "coordinates": [ 34.652039, 46.285175 ] } },
{ "type": "Feature", "properties": { "full_id": "n337690890", "osm_id": "337690890", "place": "hamlet", "namerus": "Новый Азов", "name": "Новий Азов" }, "geometry": { "type": "Point", "coordinates": [ 35.0419913, 46.2947998 ] } },
{ "type": "Feature", "properties": { "full_id": "n337690955", "osm_id": "337690955", "place": "hamlet", "namerus": "Водославка", "name": "Водославка" }, "geometry": { "type": "Point", "coordinates": [ 34.58805, 46.29158 ] } },
{ "type": "Feature", "properties": { "full_id": "n337690787", "osm_id": "337690787", "place": "hamlet", "namerus": "Новая Праця", "name": "Нова Праця" }, "geometry": { "type": "Point", "coordinates": [ 34.9678413, 46.3105983 ] } },
{ "type": "Feature", "properties": { "full_id": "n337690801", "osm_id": "337690801", "place": "hamlet", "namerus": "Калиновка", "name": "Калинівка" }, "geometry": { "type": "Point", "coordinates": [ 34.4349729, 46.3116112 ] } },
{ "type": "Feature", "properties": { "full_id": "n337691191", "osm_id": "337691191", "place": "hamlet", "namerus": "Памятник", "name": "Пам’ятник" }, "geometry": { "type": "Point", "coordinates": [ 33.5280599, 46.2643538 ] } },
{ "type": "Feature", "properties": { "full_id": "n337691299", "osm_id": "337691299", "place": "hamlet", "namerus": "Береговое", "name": "Берегове" }, "geometry": { "type": "Point", "coordinates": [ 32.1157605, 46.2469529 ] } },
{ "type": "Feature", "properties": { "full_id": "n337691172", "osm_id": "337691172", "place": "hamlet", "namerus": "Приморское", "name": "Приморське" }, "geometry": { "type": "Point", "coordinates": [ 35.0123787, 46.2632026 ] } },
{ "type": "Feature", "properties": { "full_id": "n337691183", "osm_id": "337691183", "place": "hamlet", "namerus": "Малая Андроновка", "name": "Мала Андронівка" }, "geometry": { "type": "Point", "coordinates": [ 32.83573, 46.2624 ] } },
{ "type": "Feature", "properties": { "full_id": "n337691101", "osm_id": "337691101", "place": "hamlet", "namerus": "Захаровка", "name": "Захарівка" }, "geometry": { "type": "Point", "coordinates": [ 34.31476, 46.27029 ] } },
{ "type": "Feature", "properties": { "full_id": "n337691144", "osm_id": "337691144", "place": "hamlet", "namerus": "Вознесенка", "name": "Вознесенка" }, "geometry": { "type": "Point", "coordinates": [ 34.2249176, 46.2629301 ] } },
{ "type": "Feature", "properties": { "full_id": "n337691075", "osm_id": "337691075", "place": "hamlet", "namerus": "Нововладимировка", "name": "Нововолодимирівка" }, "geometry": { "type": "Point", "coordinates": [ 33.788808, 46.2753592 ] } },
{ "type": "Feature", "properties": { "full_id": "n337691081", "osm_id": "337691081", "place": "hamlet", "namerus": "Садовое", "name": "Садове" }, "geometry": { "type": "Point", "coordinates": [ 34.3991561, 46.2728323 ] } },
{ "type": "Feature", "properties": { "full_id": "n337691787", "osm_id": "337691787", "place": "hamlet", "namerus": "Сальково", "name": "Салькове" }, "geometry": { "type": "Point", "coordinates": [ 34.602134, 46.1750616 ] } },
{ "type": "Feature", "properties": { "full_id": "n337691831", "osm_id": "337691831", "place": "hamlet", "namerus": "Веснянка", "name": "Веснянка" }, "geometry": { "type": "Point", "coordinates": [ 34.5170189, 46.1644117 ] } },
{ "type": "Feature", "properties": { "full_id": "n337691689", "osm_id": "337691689", "place": "hamlet", "namerus": "Люблинка", "name": "Люблинка" }, "geometry": { "type": "Point", "coordinates": [ 34.570597, 46.1861833 ] } },
{ "type": "Feature", "properties": { "full_id": "n337691715", "osm_id": "337691715", "place": "hamlet", "namerus": "Ясная Поляна", "name": "Ясна Поляна" }, "geometry": { "type": "Point", "coordinates": [ 34.6243942, 46.1793383 ] } },
{ "type": "Feature", "properties": { "full_id": "n337691683", "osm_id": "337691683", "place": "hamlet", "namerus": "Дружелюбовка", "name": "Дружелюбівка" }, "geometry": { "type": "Point", "coordinates": [ 34.0550155, 46.1821882 ] } },
{ "type": "Feature", "properties": { "full_id": "n337691397", "osm_id": "337691397", "place": "hamlet", "namerus": "Заозёрное", "name": "Заозерне" }, "geometry": { "type": "Point", "coordinates": [ 34.3063795, 46.2321941 ] } },
{ "type": "Feature", "properties": { "full_id": "n337691476", "osm_id": "337691476", "place": "hamlet", "namerus": "Оверьяновка", "name": "Овер’янівка" }, "geometry": { "type": "Point", "coordinates": [ 34.3729886, 46.2191155 ] } },
{ "type": "Feature", "properties": { "full_id": "n337692330", "osm_id": "337692330", "place": "hamlet", "namerus": "Поповка", "name": "Попівка" }, "geometry": { "type": "Point", "coordinates": [ 34.4963112, 46.0414912 ] } },
{ "type": "Feature", "properties": { "full_id": "n337692418", "osm_id": "337692418", "place": "hamlet", "namerus": "Зализничное", "name": "Залізничне" }, "geometry": { "type": "Point", "coordinates": [ 34.5151474, 46.0170484 ] } },
{ "type": "Feature", "properties": { "full_id": "n337692276", "osm_id": "337692276", "place": "hamlet", "namerus": "Приморское", "name": "Приморське" }, "geometry": { "type": "Point", "coordinates": [ 33.39603, 46.0564 ] } },
{ "type": "Feature", "properties": { "full_id": "n337691945", "osm_id": "337691945", "place": "hamlet", "namerus": "Черниговка", "name": "Чернігівка" }, "geometry": { "type": "Point", "coordinates": [ 34.6051298, 46.1432046 ] } },
{ "type": "Feature", "properties": { "full_id": "n337692602", "osm_id": "337692602", "place": "hamlet", "namerus": "Сиваш", "name": "Сиваш" }, "geometry": { "type": "Point", "coordinates": [ 34.4904839, 45.9688491 ] } },
{ "type": "Feature", "properties": { "full_id": "n337688234", "osm_id": "337688234", "place": "hamlet", "namerus": "Перемога", "name": "Перемога" }, "geometry": { "type": "Point", "coordinates": [ 35.247437, 46.674393 ] } },
{ "type": "Feature", "properties": { "full_id": "n337688139", "osm_id": "337688139", "place": "hamlet", "namerus": "Новоукраинка", "name": "Новоукраїнка" }, "geometry": { "type": "Point", "coordinates": [ 34.126968, 46.686741 ] } },
{ "type": "Feature", "properties": { "full_id": "n337688113", "osm_id": "337688113", "place": "hamlet", "namerus": "Зелёная Рубановка", "name": "Зелена Рубанівка" }, "geometry": { "type": "Point", "coordinates": [ 33.7794551, 46.6927111 ] } },
{ "type": "Feature", "properties": { "full_id": "n337687972", "osm_id": "337687972", "place": "hamlet", "namerus": "Бабановка", "name": "Бабанівка" }, "geometry": { "type": "Point", "coordinates": [ 35.850101, 46.697731 ] } },
{ "type": "Feature", "properties": { "full_id": "n337688027", "osm_id": "337688027", "place": "hamlet", "namerus": "Остапенко", "name": "Остапенка" }, "geometry": { "type": "Point", "coordinates": [ 34.027401, 46.695671 ] } },
{ "type": "Feature", "properties": { "full_id": "n337688809", "osm_id": "337688809", "place": "hamlet", "namerus": "Фёдоровка", "name": "Федорівка" }, "geometry": { "type": "Point", "coordinates": [ 34.2868495, 46.6162377 ] } },
{ "type": "Feature", "properties": { "full_id": "n337688854", "osm_id": "337688854", "place": "hamlet", "namerus": "Катериновка", "name": "Катеринівка" }, "geometry": { "type": "Point", "coordinates": [ 34.009209, 46.60881 ] } },
{ "type": "Feature", "properties": { "full_id": "n337688779", "osm_id": "337688779", "place": "hamlet", "namerus": "Зелёный Гай", "name": "Зелений Гай" }, "geometry": { "type": "Point", "coordinates": [ 34.6705104, 46.6167409 ] } },
{ "type": "Feature", "properties": { "full_id": "n337688437", "osm_id": "337688437", "place": "hamlet", "namerus": "Квитковое", "name": "Квіткове" }, "geometry": { "type": "Point", "coordinates": [ 34.3716467, 46.6521153 ] } },
{ "type": "Feature", "properties": { "full_id": "n337688316", "osm_id": "337688316", "place": "hamlet", "namerus": "Петровка", "name": "Петрівка" }, "geometry": { "type": "Point", "coordinates": [ 35.690121, 46.662708 ] } },
{ "type": "Feature", "properties": { "full_id": "n337688356", "osm_id": "337688356", "place": "hamlet", "namerus": "Слиненко", "name": "Слиненка" }, "geometry": { "type": "Point", "coordinates": [ 33.940201, 46.660309 ] } },
{ "type": "Feature", "properties": { "full_id": "n337689239", "osm_id": "337689239", "place": "hamlet", "namerus": "Мартовка", "name": "Мартівка" }, "geometry": { "type": "Point", "coordinates": [ 34.6352339, 46.5687928 ] } },
{ "type": "Feature", "properties": { "full_id": "n337689297", "osm_id": "337689297", "place": "hamlet", "namerus": "Тимофеевка", "name": "Тимофіївка" }, "geometry": { "type": "Point", "coordinates": [ 34.40369, 46.556969 ] } },
{ "type": "Feature", "properties": { "full_id": "n337689190", "osm_id": "337689190", "place": "hamlet", "namerus": "Качкаровка", "name": "Качкарівка" }, "geometry": { "type": "Point", "coordinates": [ 34.2292579, 46.5703783 ] } },
{ "type": "Feature", "properties": { "full_id": "n337689214", "osm_id": "337689214", "place": "hamlet", "namerus": "Дмитровка", "name": "Дмитрівка" }, "geometry": { "type": "Point", "coordinates": [ 34.2864059, 46.5706069 ] } },
{ "type": "Feature", "properties": { "full_id": "n337689078", "osm_id": "337689078", "place": "hamlet", "namerus": "Нечкино", "name": "Нечкине" }, "geometry": { "type": "Point", "coordinates": [ 35.536152, 46.578568 ] } },
{ "type": "Feature", "properties": { "full_id": "n337689181", "osm_id": "337689181", "place": "hamlet", "namerus": "Скворцовка", "name": "Скворцівка" }, "geometry": { "type": "Point", "coordinates": [ 33.942393, 46.5697827 ] } },
{ "type": "Feature", "properties": { "full_id": "n337688951", "osm_id": "337688951", "place": "hamlet", "namerus": "Любимо-Марьевка", "name": "Любимо-Мар’ївка" }, "geometry": { "type": "Point", "coordinates": [ 33.74725, 46.59885 ] } },
{ "type": "Feature", "properties": { "full_id": "n337689014", "osm_id": "337689014", "place": "hamlet", "namerus": "Михайловка", "name": "Михайлівка" }, "geometry": { "type": "Point", "coordinates": [ 34.56234, 46.58625 ] } },
{ "type": "Feature", "properties": { "full_id": "n337689568", "osm_id": "337689568", "place": "hamlet", "namerus": "Кудрявое", "name": "Кудряве" }, "geometry": { "type": "Point", "coordinates": [ 33.52375, 46.50959 ] } },
{ "type": "Feature", "properties": { "full_id": "n337689633", "osm_id": "337689633", "place": "hamlet", "namerus": "Вольное", "name": "Вільне" }, "geometry": { "type": "Point", "coordinates": [ 34.828381, 46.50272 ] } },
{ "type": "Feature", "properties": { "full_id": "n337689499", "osm_id": "337689499", "place": "hamlet", "namerus": "Раздолье", "name": "Роздолля" }, "geometry": { "type": "Point", "coordinates": [ 34.8673631, 46.5181259 ] } },
{ "type": "Feature", "properties": { "full_id": "n337689552", "osm_id": "337689552", "place": "hamlet", "namerus": "Наталовка", "name": "Наталівка" }, "geometry": { "type": "Point", "coordinates": [ 33.64048, 46.51165 ] } },
{ "type": "Feature", "properties": { "full_id": "n337689467", "osm_id": "337689467", "place": "hamlet", "namerus": "Солидарное", "name": "Солідарне" }, "geometry": { "type": "Point", "coordinates": [ 33.8287025, 46.5288154 ] } },
{ "type": "Feature", "properties": { "full_id": "n337689484", "osm_id": "337689484", "place": "hamlet", "namerus": "Попелак", "name": "Попелак" }, "geometry": { "type": "Point", "coordinates": [ 34.432297, 46.524372 ] } },
{ "type": "Feature", "properties": { "full_id": "n337689342", "osm_id": "337689342", "place": "hamlet", "namerus": "Новознаменка", "name": "Новознаменка" }, "geometry": { "type": "Point", "coordinates": [ 34.333649, 46.550098 ] } },
{ "type": "Feature", "properties": { "full_id": "n337689460", "osm_id": "337689460", "place": "hamlet", "namerus": "Чёрная Долина", "name": "Чорна Долина" }, "geometry": { "type": "Point", "coordinates": [ 33.4715, 46.528111 ] } },
{ "type": "Feature", "properties": { "full_id": "n337689859", "osm_id": "337689859", "place": "hamlet", "namerus": "Виноградный Клин", "name": "Виноградний Клин" }, "geometry": { "type": "Point", "coordinates": [ 34.98814, 46.472797 ] } },
{ "type": "Feature", "properties": { "full_id": "n337689820", "osm_id": "337689820", "place": "hamlet", "namerus": "Новый Этап", "name": "Новий Етап" }, "geometry": { "type": "Point", "coordinates": [ 33.884276, 46.4742053 ] } },
{ "type": "Feature", "properties": { "full_id": "n337689825", "osm_id": "337689825", "place": "hamlet", "namerus": "Перемога", "name": "Перемога" }, "geometry": { "type": "Point", "coordinates": [ 34.418041, 46.474926 ] } },
{ "type": "Feature", "properties": { "full_id": "n337689798", "osm_id": "337689798", "place": "hamlet", "namerus": "Новоефремовка", "name": "Новоєфремівка" }, "geometry": { "type": "Point", "coordinates": [ 34.936749, 46.479042 ] } },
{ "type": "Feature", "properties": { "full_id": "n337689693", "osm_id": "337689693", "place": "hamlet", "namerus": "Свиридоновка", "name": "Свиридонівка" }, "geometry": { "type": "Point", "coordinates": [ 34.364552, 46.494831 ] } },
{ "type": "Feature", "properties": { "full_id": "n337690084", "osm_id": "337690084", "place": "hamlet", "namerus": "Пробужденье", "name": "Пробудження" }, "geometry": { "type": "Point", "coordinates": [ 34.843163, 46.426762 ] } },
{ "type": "Feature", "properties": { "full_id": "n337690113", "osm_id": "337690113", "place": "hamlet", "namerus": "Викторовка", "name": "Вікторівка" }, "geometry": { "type": "Point", "coordinates": [ 34.758659, 46.419949 ] } },
{ "type": "Feature", "properties": { "full_id": "n337689882", "osm_id": "337689882", "place": "hamlet", "namerus": "Волчье", "name": "Вовче" }, "geometry": { "type": "Point", "coordinates": [ 35.172039, 46.467701 ] } },
{ "type": "Feature", "properties": { "full_id": "n337689932", "osm_id": "337689932", "place": "hamlet", "namerus": "Новый Гай", "name": "Новий Гай" }, "geometry": { "type": "Point", "coordinates": [ 33.51894, 46.462563 ] } },
{ "type": "Feature", "properties": { "full_id": "n337690360", "osm_id": "337690360", "place": "hamlet", "namerus": "Весёлое Второе", "name": "Веселе Друге" }, "geometry": { "type": "Point", "coordinates": [ 33.922626, 46.37891 ] } },
{ "type": "Feature", "properties": { "full_id": "n337690280", "osm_id": "337690280", "place": "hamlet", "namerus": "Ясная Поляна", "name": "Ясна Поляна" }, "geometry": { "type": "Point", "coordinates": [ 33.993759, 46.391491 ] } },
{ "type": "Feature", "properties": { "full_id": "n337690345", "osm_id": "337690345", "place": "hamlet", "namerus": "Новый Мир", "name": "Новий Мир" }, "geometry": { "type": "Point", "coordinates": [ 34.863045, 46.381767 ] } },
{ "type": "Feature", "properties": { "full_id": "n337690208", "osm_id": "337690208", "place": "hamlet", "namerus": "Буркуты", "name": "Буркути" }, "geometry": { "type": "Point", "coordinates": [ 32.799679, 46.40247 ] } },
{ "type": "Feature", "properties": { "full_id": "n337690750", "osm_id": "337690750", "place": "hamlet", "namerus": "Перекоп", "name": "Перекоп" }, "geometry": { "type": "Point", "coordinates": [ 35.0240791, 46.3153409 ] } },
{ "type": "Feature", "properties": { "full_id": "n337690708", "osm_id": "337690708", "place": "hamlet", "namerus": "Гаевое", "name": "Гайове" }, "geometry": { "type": "Point", "coordinates": [ 34.7927988, 46.3264357 ] } },
{ "type": "Feature", "properties": { "full_id": "n337690731", "osm_id": "337690731", "place": "hamlet", "namerus": "Пчёлка", "name": "Пчілка" }, "geometry": { "type": "Point", "coordinates": [ 35.0507326, 46.3204907 ] } },
{ "type": "Feature", "properties": { "full_id": "n337690655", "osm_id": "337690655", "place": "hamlet", "namerus": "Драгоманово", "name": "Драгоманове" }, "geometry": { "type": "Point", "coordinates": [ 34.9572952, 46.3368437 ] } },
{ "type": "Feature", "properties": { "full_id": "n337690684", "osm_id": "337690684", "place": "hamlet", "namerus": "Муравейник", "name": "Муравейник" }, "geometry": { "type": "Point", "coordinates": [ 34.8085884, 46.3274623 ] } },
{ "type": "Feature", "properties": { "full_id": "n337690436", "osm_id": "337690436", "place": "hamlet", "namerus": "Гордиенковцы", "name": "Гордієнківці" }, "geometry": { "type": "Point", "coordinates": [ 34.809162, 46.367416 ] } },
{ "type": "Feature", "properties": { "full_id": "n337690549", "osm_id": "337690549", "place": "hamlet", "namerus": "Сергеевка", "name": "Сергіївка" }, "geometry": { "type": "Point", "coordinates": [ 34.724132, 46.3528055 ] } },
{ "type": "Feature", "properties": { "full_id": "n416782490", "osm_id": "416782490", "place": "hamlet", "namerus": "Октябрьское", "name": "Октябрьское" }, "geometry": { "type": "Point", "coordinates": [ 34.8074557, 51.581736 ] } },
{ "type": "Feature", "properties": { "full_id": "n417349667", "osm_id": "417349667", "place": "hamlet", "namerus": "Надейка", "name": "Надейка" }, "geometry": { "type": "Point", "coordinates": [ 34.605649, 51.7505037 ] } },
{ "type": "Feature", "properties": { "full_id": "n367885915", "osm_id": "367885915", "place": "hamlet", "namerus": "Голофеевка", "name": "Голофеевка" }, "geometry": { "type": "Point", "coordinates": [ 37.9021655, 51.1314227 ] } },
{ "type": "Feature", "properties": { "full_id": "n367886032", "osm_id": "367886032", "place": "hamlet", "namerus": "Новиково", "name": "Новиково" }, "geometry": { "type": "Point", "coordinates": [ 37.8878869, 51.1536804 ] } },
{ "type": "Feature", "properties": { "full_id": "n367882590", "osm_id": "367882590", "place": "hamlet", "namerus": "Бабанинка", "name": "Бабанинка" }, "geometry": { "type": "Point", "coordinates": [ 37.9669038, 51.167958 ] } },
{ "type": "Feature", "properties": { "full_id": "n367882603", "osm_id": "367882603", "place": "hamlet", "namerus": "Готовье", "name": "Готовье" }, "geometry": { "type": "Point", "coordinates": [ 37.9851736, 51.16502 ] } },
{ "type": "Feature", "properties": { "full_id": "n367882564", "osm_id": "367882564", "place": "hamlet", "namerus": "Черниково", "name": "Черниково" }, "geometry": { "type": "Point", "coordinates": [ 38.0091942, 51.2250678 ] } },
{ "type": "Feature", "properties": { "full_id": "n367882568", "osm_id": "367882568", "place": "hamlet", "namerus": "Выползово", "name": "Выползово" }, "geometry": { "type": "Point", "coordinates": [ 37.9871478, 51.2096086 ] } },
{ "type": "Feature", "properties": { "full_id": "n367896648", "osm_id": "367896648", "place": "hamlet", "namerus": "Котеневка", "name": "Котеневка" }, "geometry": { "type": "Point", "coordinates": [ 37.7131332, 51.2145777 ] } },
{ "type": "Feature", "properties": { "full_id": "n367896665", "osm_id": "367896665", "place": "hamlet", "namerus": "Окольное", "name": "Окольное" }, "geometry": { "type": "Point", "coordinates": [ 37.756789, 51.1393459 ] } },
{ "type": "Feature", "properties": { "full_id": "n367896641", "osm_id": "367896641", "place": "hamlet", "namerus": "Верхне-Чуфичево", "name": "Верхне-Чуфичево" }, "geometry": { "type": "Point", "coordinates": [ 37.7328873, 51.2207116 ] } },
{ "type": "Feature", "properties": { "full_id": "n367886288", "osm_id": "367886288", "place": "hamlet", "namerus": "Нижне-Чуфичево", "name": "Нижне-Чуфичево" }, "geometry": { "type": "Point", "coordinates": [ 37.8596526, 51.1858428 ] } },
{ "type": "Feature", "properties": { "full_id": "n367886338", "osm_id": "367886338", "place": "hamlet", "namerus": "Нижнеатаманское", "name": "Нижнеатаманское" }, "geometry": { "type": "Point", "coordinates": [ 37.852485, 51.2045214 ] } },
{ "type": "Feature", "properties": { "full_id": "n367886077", "osm_id": "367886077", "place": "hamlet", "namerus": "Песочный", "name": "Песочный" }, "geometry": { "type": "Point", "coordinates": [ 37.8853771, 51.1631241 ] } },
{ "type": "Feature", "properties": { "full_id": "n367886145", "osm_id": "367886145", "place": "hamlet", "namerus": "Великий Перевоз", "name": "Великий Перевоз" }, "geometry": { "type": "Point", "coordinates": [ 37.8722654, 51.173035 ] } },
{ "type": "Feature", "properties": { "full_id": "n367900755", "osm_id": "367900755", "place": "hamlet", "namerus": "Новоселовка", "name": "Новоселовка" }, "geometry": { "type": "Point", "coordinates": [ 37.7414643, 51.2959846 ] } },
{ "type": "Feature", "properties": { "full_id": "n368183999", "osm_id": "368183999", "place": "hamlet", "namerus": "Ильины", "name": "Ильины" }, "geometry": { "type": "Point", "coordinates": [ 37.9727985, 51.3052945 ] } },
{ "type": "Feature", "properties": { "full_id": "n337597254", "osm_id": "337597254", "place": "hamlet", "namerus": "Веселогоровка", "name": "Веселогорівка" }, "geometry": { "type": "Point", "coordinates": [ 38.456955, 48.473335 ] } },
{ "type": "Feature", "properties": { "full_id": "n337597330", "osm_id": "337597330", "place": "hamlet", "namerus": "Луговое", "name": "Лугове" }, "geometry": { "type": "Point", "coordinates": [ 35.4067906, 48.4691945 ] } },
{ "type": "Feature", "properties": { "full_id": "n337597220", "osm_id": "337597220", "place": "hamlet", "namerus": "Новониколаевка", "name": "Новомиколаївка" }, "geometry": { "type": "Point", "coordinates": [ 35.5882142, 48.474277 ] } },
{ "type": "Feature", "properties": { "full_id": "n337597984", "osm_id": "337597984", "place": "hamlet", "namerus": "Троицкое", "name": "Троїцьке" }, "geometry": { "type": "Point", "coordinates": [ 38.928513, 48.445522 ] } },
{ "type": "Feature", "properties": { "full_id": "n337597867", "osm_id": "337597867", "place": "hamlet", "namerus": "Зелёный Луг", "name": "Зелений Луг" }, "geometry": { "type": "Point", "coordinates": [ 33.724087, 48.448425 ] } },
{ "type": "Feature", "properties": { "full_id": "n337597621", "osm_id": "337597621", "place": "hamlet", "namerus": "Кулябкино", "name": "Кулябкине" }, "geometry": { "type": "Point", "coordinates": [ 33.943783, 48.462898 ] } },
{ "type": "Feature", "properties": { "full_id": "n337598416", "osm_id": "337598416", "place": "hamlet", "namerus": "Полевое", "name": "Польове" }, "geometry": { "type": "Point", "coordinates": [ 38.436779, 48.444229 ] } },
{ "type": "Feature", "properties": { "full_id": "n337598454", "osm_id": "337598454", "place": "hamlet", "namerus": "Петровка", "name": "Петрівка" }, "geometry": { "type": "Point", "coordinates": [ 33.644962, 48.442307 ] } },
{ "type": "Feature", "properties": { "full_id": "n337598130", "osm_id": "337598130", "place": "hamlet", "namerus": "Саксагань", "name": "Саксагань" }, "geometry": { "type": "Point", "coordinates": [ 34.1856771, 48.4486238 ] } },
{ "type": "Feature", "properties": { "full_id": "n337597998", "osm_id": "337597998", "place": "hamlet", "namerus": "Степановка", "name": "Степанівка" }, "geometry": { "type": "Point", "coordinates": [ 38.4970269, 48.4519999 ] } },
{ "type": "Feature", "properties": { "full_id": "n337598004", "osm_id": "337598004", "place": "hamlet", "namerus": "Надаровка", "name": "Надарівка" }, "geometry": { "type": "Point", "coordinates": [ 38.450874, 48.454029 ] } },
{ "type": "Feature", "properties": { "full_id": "n337599022", "osm_id": "337599022", "place": "hamlet", "namerus": "Червоный Яр", "name": "Червоний Яр" }, "geometry": { "type": "Point", "coordinates": [ 33.991695, 48.429573 ] } },
{ "type": "Feature", "properties": { "full_id": "n337598852", "osm_id": "337598852", "place": "hamlet", "namerus": "Котляровка", "name": "Котлярівка" }, "geometry": { "type": "Point", "coordinates": [ 34.317848, 48.426022 ] } },
{ "type": "Feature", "properties": { "full_id": "n337598732", "osm_id": "337598732", "place": "hamlet", "namerus": "Новопричепиловка", "name": "Новопричепилівка" }, "geometry": { "type": "Point", "coordinates": [ 36.364628, 48.428768 ] } },
{ "type": "Feature", "properties": { "full_id": "n337598759", "osm_id": "337598759", "place": "hamlet", "namerus": "Юрьевка", "name": "Юр’ївка" }, "geometry": { "type": "Point", "coordinates": [ 36.67271, 48.429451 ] } },
{ "type": "Feature", "properties": { "full_id": "n337598591", "osm_id": "337598591", "place": "hamlet", "namerus": "Очеретоватое", "name": "Очеретувате" }, "geometry": { "type": "Point", "coordinates": [ 35.711399, 48.434601 ] } },
{ "type": "Feature", "properties": { "full_id": "n337600090", "osm_id": "337600090", "place": "hamlet", "namerus": "Новоматвеевское", "name": "Новоматвіївське" }, "geometry": { "type": "Point", "coordinates": [ 35.667511, 48.397938 ] } },
{ "type": "Feature", "properties": { "full_id": "n337599892", "osm_id": "337599892", "place": "hamlet", "namerus": "Яблоневое", "name": "Яблуневе" }, "geometry": { "type": "Point", "coordinates": [ 34.3753017, 48.4078929 ] } },
{ "type": "Feature", "properties": { "full_id": "n337599474", "osm_id": "337599474", "place": "hamlet", "namerus": "Казачий Гай", "name": "Козачий Гай" }, "geometry": { "type": "Point", "coordinates": [ 35.634151, 48.411251 ] } },
{ "type": "Feature", "properties": { "full_id": "n337599094", "osm_id": "337599094", "place": "hamlet", "namerus": "Любимовка", "name": "Любимівка" }, "geometry": { "type": "Point", "coordinates": [ 34.347382, 48.421211 ] } },
{ "type": "Feature", "properties": { "full_id": "n337599378", "osm_id": "337599378", "place": "hamlet", "namerus": "Байковка", "name": "Байківка" }, "geometry": { "type": "Point", "coordinates": [ 33.951897, 48.413006 ] } },
{ "type": "Feature", "properties": { "full_id": "n337600416", "osm_id": "337600416", "place": "hamlet", "namerus": "Черногоровка", "name": "Чорногорівка" }, "geometry": { "type": "Point", "coordinates": [ 38.684483, 48.38224 ] } },
{ "type": "Feature", "properties": { "full_id": "n337600268", "osm_id": "337600268", "place": "hamlet", "namerus": "Малая Мартыновка", "name": "Мала Мартинівка" }, "geometry": { "type": "Point", "coordinates": [ 38.966702, 48.390617 ] } },
{ "type": "Feature", "properties": { "full_id": "n337600119", "osm_id": "337600119", "place": "hamlet", "namerus": "Захидное", "name": "Західне" }, "geometry": { "type": "Point", "coordinates": [ 39.047993, 48.399601 ] } },
{ "type": "Feature", "properties": { "full_id": "n337600175", "osm_id": "337600175", "place": "hamlet", "namerus": "Городнее", "name": "Городнє" }, "geometry": { "type": "Point", "coordinates": [ 38.84045, 48.394772 ] } },
{ "type": "Feature", "properties": { "full_id": "n337600967", "osm_id": "337600967", "place": "hamlet", "namerus": "Баштевич", "name": "Баштевич" }, "geometry": { "type": "Point", "coordinates": [ 38.8671567, 48.3675946 ] } },
{ "type": "Feature", "properties": { "full_id": "n337600974", "osm_id": "337600974", "place": "hamlet", "namerus": "Пристень", "name": "Пристень" }, "geometry": { "type": "Point", "coordinates": [ 35.765495, 48.359478 ] } },
{ "type": "Feature", "properties": { "full_id": "n337600469", "osm_id": "337600469", "place": "hamlet", "namerus": "Анновка", "name": "Ганнівка" }, "geometry": { "type": "Point", "coordinates": [ 38.8818506, 48.3777472 ] } },
{ "type": "Feature", "properties": { "full_id": "n337600487", "osm_id": "337600487", "place": "hamlet", "namerus": "Богуславка", "name": "Богуславка" }, "geometry": { "type": "Point", "coordinates": [ 35.45425, 48.377609 ] } },
{ "type": "Feature", "properties": { "full_id": "n337601190", "osm_id": "337601190", "place": "hamlet", "namerus": "Жуково", "name": "Жукове" }, "geometry": { "type": "Point", "coordinates": [ 36.60149, 48.35994 ] } },
{ "type": "Feature", "properties": { "full_id": "n337601141", "osm_id": "337601141", "place": "hamlet", "namerus": "Андреевка", "name": "Андріївка" }, "geometry": { "type": "Point", "coordinates": [ 39.4939896, 48.3561722 ] } },
{ "type": "Feature", "properties": { "full_id": "n337601147", "osm_id": "337601147", "place": "hamlet", "namerus": "Приволье", "name": "Привілля" }, "geometry": { "type": "Point", "coordinates": [ 34.073681, 48.354069 ] } },
{ "type": "Feature", "properties": { "full_id": "n337592190", "osm_id": "337592190", "place": "hamlet", "namerus": "Червоная Горка", "name": "Червона Гірка" }, "geometry": { "type": "Point", "coordinates": [ 33.812141, 48.610069 ] } },
{ "type": "Feature", "properties": { "full_id": "n337592026", "osm_id": "337592026", "place": "hamlet", "namerus": "Новосёловка", "name": "Новоселівка" }, "geometry": { "type": "Point", "coordinates": [ 34.0113914, 48.6145876 ] } },
{ "type": "Feature", "properties": { "full_id": "n337592755", "osm_id": "337592755", "place": "hamlet", "namerus": "Новодмитровка", "name": "Новодмитрівка" }, "geometry": { "type": "Point", "coordinates": [ 36.6794788, 48.5885034 ] } },
{ "type": "Feature", "properties": { "full_id": "n337592680", "osm_id": "337592680", "place": "hamlet", "namerus": "Новосёловка", "name": "Новоселівка" }, "geometry": { "type": "Point", "coordinates": [ 39.102741, 48.591839 ] } },
{ "type": "Feature", "properties": { "full_id": "n337592638", "osm_id": "337592638", "place": "hamlet", "namerus": "Ровеньки", "name": "Ровеньки" }, "geometry": { "type": "Point", "coordinates": [ 33.692135, 48.592529 ] } },
{ "type": "Feature", "properties": { "full_id": "n337592652", "osm_id": "337592652", "place": "hamlet", "namerus": "Выскрива", "name": "Вискрива" }, "geometry": { "type": "Point", "coordinates": [ 38.2976758, 48.591481 ] } },
{ "type": "Feature", "properties": { "full_id": "n337592326", "osm_id": "337592326", "place": "hamlet", "namerus": "Самоткань", "name": "Самоткань" }, "geometry": { "type": "Point", "coordinates": [ 34.2853471, 48.5933799 ] } },
{ "type": "Feature", "properties": { "full_id": "n337592430", "osm_id": "337592430", "place": "hamlet", "namerus": "Сизое", "name": "Сизе" }, "geometry": { "type": "Point", "coordinates": [ 39.628712, 48.600079 ] } },
{ "type": "Feature", "properties": { "full_id": "n337593270", "osm_id": "337593270", "place": "hamlet", "namerus": "Червоная Долина", "name": "Червона Долина" }, "geometry": { "type": "Point", "coordinates": [ 35.6315378, 48.5754758 ] } },
{ "type": "Feature", "properties": { "full_id": "n337593177", "osm_id": "337593177", "place": "hamlet", "namerus": "Соколово", "name": "Соколове" }, "geometry": { "type": "Point", "coordinates": [ 33.948872, 48.580441 ] } },
{ "type": "Feature", "properties": { "full_id": "n337593044", "osm_id": "337593044", "place": "hamlet", "namerus": "Томаковка", "name": "Томаківка" }, "geometry": { "type": "Point", "coordinates": [ 34.15958, 48.58292 ] } },
{ "type": "Feature", "properties": { "full_id": "n337593103", "osm_id": "337593103", "place": "hamlet", "namerus": "Новоанновка", "name": "Новоганнівка" }, "geometry": { "type": "Point", "coordinates": [ 33.9227045, 48.5809094 ] } },
{ "type": "Feature", "properties": { "full_id": "n337592907", "osm_id": "337592907", "place": "hamlet", "namerus": "Зелёное", "name": "Зелене" }, "geometry": { "type": "Point", "coordinates": [ 34.1356375, 48.5878001 ] } },
{ "type": "Feature", "properties": { "full_id": "n337593570", "osm_id": "337593570", "place": "hamlet", "namerus": "Хорошилово", "name": "Хорошилове" }, "geometry": { "type": "Point", "coordinates": [ 39.73196, 48.565575 ] } },
{ "type": "Feature", "properties": { "full_id": "n337593802", "osm_id": "337593802", "place": "hamlet", "namerus": "Запорожье", "name": "Запоріжжя" }, "geometry": { "type": "Point", "coordinates": [ 33.738331, 48.562321 ] } },
{ "type": "Feature", "properties": { "full_id": "n337593431", "osm_id": "337593431", "place": "hamlet", "namerus": "Зелёная Долина", "name": "Зелена Долина" }, "geometry": { "type": "Point", "coordinates": [ 36.1937722, 48.5737287 ] } },
{ "type": "Feature", "properties": { "full_id": "n337593305", "osm_id": "337593305", "place": "hamlet", "namerus": "Соловьёвка", "name": "Солов’ївка" }, "geometry": { "type": "Point", "coordinates": [ 34.098808, 48.576389 ] } },
{ "type": "Feature", "properties": { "full_id": "n337593368", "osm_id": "337593368", "place": "hamlet", "namerus": "Хрящевка", "name": "Хрящівка" }, "geometry": { "type": "Point", "coordinates": [ 39.616035, 48.573807 ] } },
{ "type": "Feature", "properties": { "full_id": "n337594279", "osm_id": "337594279", "place": "hamlet", "namerus": "Толстое", "name": "Товсте" }, "geometry": { "type": "Point", "coordinates": [ 36.6162128, 48.5472641 ] } },
{ "type": "Feature", "properties": { "full_id": "n337594064", "osm_id": "337594064", "place": "hamlet", "namerus": "Ярок", "name": "Ярок" }, "geometry": { "type": "Point", "coordinates": [ 34.072702, 48.5579217 ] } },
{ "type": "Feature", "properties": { "full_id": "n337594147", "osm_id": "337594147", "place": "hamlet", "namerus": "Мироновка", "name": "Миронівка" }, "geometry": { "type": "Point", "coordinates": [ 33.84682, 48.55133 ] } },
{ "type": "Feature", "properties": { "full_id": "n337594033", "osm_id": "337594033", "place": "hamlet", "namerus": "Успеновка", "name": "Успенівка" }, "geometry": { "type": "Point", "coordinates": [ 36.629791, 48.554081 ] } },
{ "type": "Feature", "properties": { "full_id": "n337595349", "osm_id": "337595349", "place": "hamlet", "namerus": "Кушнарёвка", "name": "Кушнарівка" }, "geometry": { "type": "Point", "coordinates": [ 33.94569, 48.529701 ] } },
{ "type": "Feature", "properties": { "full_id": "n337594909", "osm_id": "337594909", "place": "hamlet", "namerus": "Вишнёвый Дол", "name": "Вишневий Діл" }, "geometry": { "type": "Point", "coordinates": [ 39.490025, 48.53791 ] } },
{ "type": "Feature", "properties": { "full_id": "n337594388", "osm_id": "337594388", "place": "hamlet", "namerus": "Новоукраинка", "name": "Новоукраїнка" }, "geometry": { "type": "Point", "coordinates": [ 33.920784, 48.549389 ] } },
{ "type": "Feature", "properties": { "full_id": "n337594423", "osm_id": "337594423", "place": "hamlet", "namerus": "Ильевка", "name": "Іллівка" }, "geometry": { "type": "Point", "coordinates": [ 39.729366, 48.546799 ] } },
{ "type": "Feature", "properties": { "full_id": "n337596159", "osm_id": "337596159", "place": "hamlet", "namerus": "Полтавское", "name": "Полтавське" }, "geometry": { "type": "Point", "coordinates": [ 36.698109, 48.506351 ] } },
{ "type": "Feature", "properties": { "full_id": "n337595683", "osm_id": "337595683", "place": "hamlet", "namerus": "Малая Покровка", "name": "Мала Покровка" }, "geometry": { "type": "Point", "coordinates": [ 36.723553, 48.522964 ] } },
{ "type": "Feature", "properties": { "full_id": "n337595792", "osm_id": "337595792", "place": "hamlet", "namerus": "Зелёный Гай", "name": "Зелений Гай" }, "geometry": { "type": "Point", "coordinates": [ 34.3927442, 48.5249068 ] } },
{ "type": "Feature", "properties": { "full_id": "n337596937", "osm_id": "337596937", "place": "hamlet", "namerus": "Зелёный Гай", "name": "Зелений Гай" }, "geometry": { "type": "Point", "coordinates": [ 36.3838968, 48.4838964 ] } },
{ "type": "Feature", "properties": { "full_id": "n337596639", "osm_id": "337596639", "place": "hamlet", "namerus": "Пантелеевка", "name": "Пантеліївка" }, "geometry": { "type": "Point", "coordinates": [ 39.731045, 48.493076 ] } },
{ "type": "Feature", "properties": { "full_id": "n337606168", "osm_id": "337606168", "place": "hamlet", "namerus": "Южное", "name": "Південне" }, "geometry": { "type": "Point", "coordinates": [ 33.849197, 48.2236081 ] } },
{ "type": "Feature", "properties": { "full_id": "n337605995", "osm_id": "337605995", "place": "hamlet", "namerus": "Дубо-Осокоровка", "name": "Дубо-Осокорівка" }, "geometry": { "type": "Point", "coordinates": [ 35.337517, 48.225807 ] } },
{ "type": "Feature", "properties": { "full_id": "n337606010", "osm_id": "337606010", "place": "hamlet", "namerus": "Мотина Балка", "name": "Мотина Балка" }, "geometry": { "type": "Point", "coordinates": [ 33.628593, 48.231361 ] } },
{ "type": "Feature", "properties": { "full_id": "n337605741", "osm_id": "337605741", "place": "hamlet", "namerus": "Ульяновка", "name": "Улянівка" }, "geometry": { "type": "Point", "coordinates": [ 35.974388, 48.2365 ] } },
{ "type": "Feature", "properties": { "full_id": "n337605944", "osm_id": "337605944", "place": "hamlet", "namerus": "Боково", "name": "Бокове" }, "geometry": { "type": "Point", "coordinates": [ 39.428791, 48.23291 ] } },
{ "type": "Feature", "properties": { "full_id": "n337655658", "osm_id": "337655658", "place": "hamlet", "namerus": "Новомихайловка", "name": "Новомихайлівка" }, "geometry": { "type": "Point", "coordinates": [ 33.686874, 48.219234 ] } },
{ "type": "Feature", "properties": { "full_id": "n337655613", "osm_id": "337655613", "place": "hamlet", "namerus": "Гряковатое", "name": "Грякувате" }, "geometry": { "type": "Point", "coordinates": [ 35.2966851, 48.2215842 ] } },
{ "type": "Feature", "properties": { "full_id": "n337655623", "osm_id": "337655623", "place": "hamlet", "namerus": "Казаковка", "name": "Козаківка" }, "geometry": { "type": "Point", "coordinates": [ 39.0304016, 48.22007 ] } },
{ "type": "Feature", "properties": { "full_id": "n337606326", "osm_id": "337606326", "place": "hamlet", "namerus": "Алексеевка", "name": "Олексіївка" }, "geometry": { "type": "Point", "coordinates": [ 35.181999, 48.221741 ] } },
{ "type": "Feature", "properties": { "full_id": "n337655602", "osm_id": "337655602", "place": "hamlet", "namerus": "Запорожец", "name": "Запорожець" }, "geometry": { "type": "Point", "coordinates": [ 35.229721, 48.221401 ] } },
{ "type": "Feature", "properties": { "full_id": "n337606271", "osm_id": "337606271", "place": "hamlet", "namerus": "Марье-Константиновка", "name": "Мар’є-Костянтинівка" }, "geometry": { "type": "Point", "coordinates": [ 33.742794, 48.220951 ] } },
{ "type": "Feature", "properties": { "full_id": "n337656255", "osm_id": "337656255", "place": "hamlet", "namerus": "Дубовка", "name": "Дубівка" }, "geometry": { "type": "Point", "coordinates": [ 39.6048465, 48.2084532 ] } },
{ "type": "Feature", "properties": { "full_id": "n337656367", "osm_id": "337656367", "place": "hamlet", "namerus": "Зелёный Яр", "name": "Зелений Яр" }, "geometry": { "type": "Point", "coordinates": [ 34.028671, 48.205425 ] } },
{ "type": "Feature", "properties": { "full_id": "n337656152", "osm_id": "337656152", "place": "hamlet", "namerus": "Днепровское", "name": "Дніпровське" }, "geometry": { "type": "Point", "coordinates": [ 35.610821, 48.208923 ] } },
{ "type": "Feature", "properties": { "full_id": "n337656239", "osm_id": "337656239", "place": "hamlet", "namerus": "Надеждино", "name": "Надеждине" }, "geometry": { "type": "Point", "coordinates": [ 35.5462136, 48.2038272 ] } },
{ "type": "Feature", "properties": { "full_id": "n337655927", "osm_id": "337655927", "place": "hamlet", "namerus": "Кобзарь", "name": "Кобзар" }, "geometry": { "type": "Point", "coordinates": [ 35.8419, 48.213051 ] } },
{ "type": "Feature", "properties": { "full_id": "n337656027", "osm_id": "337656027", "place": "hamlet", "namerus": "Попово", "name": "Попове" }, "geometry": { "type": "Point", "coordinates": [ 35.289799, 48.209381 ] } },
{ "type": "Feature", "properties": { "full_id": "n337656720", "osm_id": "337656720", "place": "hamlet", "namerus": "Шевченковское", "name": "Шевченківське" }, "geometry": { "type": "Point", "coordinates": [ 35.7344236, 48.1894644 ] } },
{ "type": "Feature", "properties": { "full_id": "n337656681", "osm_id": "337656681", "place": "hamlet", "namerus": "Верхнедеревечка", "name": "Верхньодеревечка" }, "geometry": { "type": "Point", "coordinates": [ 39.720379, 48.192558 ] } },
{ "type": "Feature", "properties": { "full_id": "n337656709", "osm_id": "337656709", "place": "hamlet", "namerus": "Червоный Орлик", "name": "Червоний Орлик" }, "geometry": { "type": "Point", "coordinates": [ 33.989639, 48.191872 ] } },
{ "type": "Feature", "properties": { "full_id": "n337656624", "osm_id": "337656624", "place": "hamlet", "namerus": "Зелёное", "name": "Зелене" }, "geometry": { "type": "Point", "coordinates": [ 35.308994, 48.188007 ] } },
{ "type": "Feature", "properties": { "full_id": "n337656633", "osm_id": "337656633", "place": "hamlet", "namerus": "Высокое", "name": "Високе" }, "geometry": { "type": "Point", "coordinates": [ 34.209633, 48.193237 ] } },
{ "type": "Feature", "properties": { "full_id": "n337656493", "osm_id": "337656493", "place": "hamlet", "namerus": "Ивановское", "name": "Іванівське" }, "geometry": { "type": "Point", "coordinates": [ 35.76324, 48.19702 ] } },
{ "type": "Feature", "properties": { "full_id": "n337656523", "osm_id": "337656523", "place": "hamlet", "namerus": "Лубянцы", "name": "Луб’янці" }, "geometry": { "type": "Point", "coordinates": [ 35.745956, 48.199665 ] } },
{ "type": "Feature", "properties": { "full_id": "n337657079", "osm_id": "337657079", "place": "hamlet", "namerus": "Голубиновка", "name": "Голубинівка" }, "geometry": { "type": "Point", "coordinates": [ 34.4551369, 48.1814238 ] } },
{ "type": "Feature", "properties": { "full_id": "n337656791", "osm_id": "337656791", "place": "hamlet", "namerus": "Беляковка", "name": "Біляківка" }, "geometry": { "type": "Point", "coordinates": [ 36.87872, 48.1865783 ] } },
{ "type": "Feature", "properties": { "full_id": "n337656964", "osm_id": "337656964", "place": "hamlet", "namerus": "Марьевка", "name": "Мар’ївка" }, "geometry": { "type": "Point", "coordinates": [ 35.202942, 48.184319 ] } },
{ "type": "Feature", "properties": { "full_id": "n337656742", "osm_id": "337656742", "place": "hamlet", "namerus": "Зелёный Курган", "name": "Зелений Курган" }, "geometry": { "type": "Point", "coordinates": [ 39.13735, 48.1908674 ] } },
{ "type": "Feature", "properties": { "full_id": "n337656752", "osm_id": "337656752", "place": "hamlet", "namerus": "Марьевка", "name": "Мар’ївка" }, "geometry": { "type": "Point", "coordinates": [ 36.858479, 48.191681 ] } },
{ "type": "Feature", "properties": { "full_id": "n337657493", "osm_id": "337657493", "place": "hamlet", "namerus": "Мажары", "name": "Мажари" }, "geometry": { "type": "Point", "coordinates": [ 35.5553493, 48.1728454 ] } },
{ "type": "Feature", "properties": { "full_id": "n337657442", "osm_id": "337657442", "place": "hamlet", "namerus": "Долгое", "name": "Довге" }, "geometry": { "type": "Point", "coordinates": [ 36.368858, 48.172989 ] } },
{ "type": "Feature", "properties": { "full_id": "n337657237", "osm_id": "337657237", "place": "hamlet", "namerus": "Зелёный Гай", "name": "Зелений Гай" }, "geometry": { "type": "Point", "coordinates": [ 35.7358111, 48.181189 ] } },
{ "type": "Feature", "properties": { "full_id": "n337657434", "osm_id": "337657434", "place": "hamlet", "namerus": "Весёлая Долина", "name": "Весела Долина" }, "geometry": { "type": "Point", "coordinates": [ 34.051575, 48.17635 ] } },
{ "type": "Feature", "properties": { "full_id": "n337657180", "osm_id": "337657180", "place": "hamlet", "namerus": "Тарасовка", "name": "Тарасівка" }, "geometry": { "type": "Point", "coordinates": [ 34.162857, 48.177681 ] } },
{ "type": "Feature", "properties": { "full_id": "n337657793", "osm_id": "337657793", "place": "hamlet", "namerus": "Гроза", "name": "Гроза" }, "geometry": { "type": "Point", "coordinates": [ 35.0751794, 48.1598687 ] } },
{ "type": "Feature", "properties": { "full_id": "n337657863", "osm_id": "337657863", "place": "hamlet", "namerus": "Заячье", "name": "Заяче" }, "geometry": { "type": "Point", "coordinates": [ 35.614239, 48.157539 ] } },
{ "type": "Feature", "properties": { "full_id": "n337657708", "osm_id": "337657708", "place": "hamlet", "namerus": "Вербовое", "name": "Вербове" }, "geometry": { "type": "Point", "coordinates": [ 33.834106, 48.159447 ] } },
{ "type": "Feature", "properties": { "full_id": "n337657738", "osm_id": "337657738", "place": "hamlet", "namerus": "Трубный", "name": "Трубний" }, "geometry": { "type": "Point", "coordinates": [ 38.7559474, 48.1620266 ] } },
{ "type": "Feature", "properties": { "full_id": "n337657644", "osm_id": "337657644", "place": "hamlet", "namerus": "Любое", "name": "Любе" }, "geometry": { "type": "Point", "coordinates": [ 33.84956, 48.166458 ] } },
{ "type": "Feature", "properties": { "full_id": "n337657707", "osm_id": "337657707", "place": "hamlet", "namerus": "Смоленка", "name": "Смоленка" }, "geometry": { "type": "Point", "coordinates": [ 34.230022, 48.163979 ] } },
{ "type": "Feature", "properties": { "full_id": "n337657500", "osm_id": "337657500", "place": "hamlet", "namerus": "Петро-Свистуново", "name": "Петро-Свистунове" }, "geometry": { "type": "Point", "coordinates": [ 35.098019, 48.171062 ] } },
{ "type": "Feature", "properties": { "full_id": "n337658212", "osm_id": "337658212", "place": "hamlet", "namerus": "Карайково", "name": "Карайкове" }, "geometry": { "type": "Point", "coordinates": [ 34.416729, 48.14827 ] } },
{ "type": "Feature", "properties": { "full_id": "n337658321", "osm_id": "337658321", "place": "hamlet", "namerus": "Самарское", "name": "Самарське" }, "geometry": { "type": "Point", "coordinates": [ 35.8640836, 48.148508 ] } },
{ "type": "Feature", "properties": { "full_id": "n337658207", "osm_id": "337658207", "place": "hamlet", "namerus": "Терса", "name": "Терса" }, "geometry": { "type": "Point", "coordinates": [ 35.6847953, 48.1472359 ] } },
{ "type": "Feature", "properties": { "full_id": "n337658131", "osm_id": "337658131", "place": "hamlet", "namerus": "Ковалёво", "name": "Ковалеве" }, "geometry": { "type": "Point", "coordinates": [ 33.789822, 48.15033 ] } },
{ "type": "Feature", "properties": { "full_id": "n337657876", "osm_id": "337657876", "place": "hamlet", "namerus": "Мельниково", "name": "Мельникове" }, "geometry": { "type": "Point", "coordinates": [ 39.0345633, 48.1564687 ] } },
{ "type": "Feature", "properties": { "full_id": "n337658000", "osm_id": "337658000", "place": "hamlet", "namerus": "Казачье", "name": "Козаче" }, "geometry": { "type": "Point", "coordinates": [ 34.19186, 48.153419 ] } },
{ "type": "Feature", "properties": { "full_id": "n337602324", "osm_id": "337602324", "place": "hamlet", "namerus": "Цевки", "name": "Цівки" }, "geometry": { "type": "Point", "coordinates": [ 33.709419, 48.328484 ] } },
{ "type": "Feature", "properties": { "full_id": "n337602176", "osm_id": "337602176", "place": "hamlet", "namerus": "Нововоскресеновка", "name": "Нововоскресенівка" }, "geometry": { "type": "Point", "coordinates": [ 35.837742, 48.331951 ] } },
{ "type": "Feature", "properties": { "full_id": "n337602165", "osm_id": "337602165", "place": "hamlet", "namerus": "Весёлое", "name": "Веселе" }, "geometry": { "type": "Point", "coordinates": [ 34.161301, 48.332291 ] } },
{ "type": "Feature", "properties": { "full_id": "n337601717", "osm_id": "337601717", "place": "hamlet", "namerus": "Круглик", "name": "Круглик" }, "geometry": { "type": "Point", "coordinates": [ 38.5039524, 48.3420133 ] } },
{ "type": "Feature", "properties": { "full_id": "n337602813", "osm_id": "337602813", "place": "hamlet", "namerus": "Глубокое", "name": "Глибоке" }, "geometry": { "type": "Point", "coordinates": [ 39.465614, 48.313065 ] } },
{ "type": "Feature", "properties": { "full_id": "n337602609", "osm_id": "337602609", "place": "hamlet", "namerus": "Червоный Садок", "name": "Червоний Садок" }, "geometry": { "type": "Point", "coordinates": [ 35.063549, 48.320961 ] } },
{ "type": "Feature", "properties": { "full_id": "n337602516", "osm_id": "337602516", "place": "hamlet", "namerus": "Коржевое", "name": "Коржове" }, "geometry": { "type": "Point", "coordinates": [ 35.935951, 48.330807 ] } },
{ "type": "Feature", "properties": { "full_id": "n337603370", "osm_id": "337603370", "place": "hamlet", "namerus": "Острый Камень", "name": "Гострий Камінь" }, "geometry": { "type": "Point", "coordinates": [ 35.642548, 48.300579 ] } },
{ "type": "Feature", "properties": { "full_id": "n337603350", "osm_id": "337603350", "place": "hamlet", "namerus": "Тимирязево", "name": "Тімірязєве" }, "geometry": { "type": "Point", "coordinates": [ 38.746086, 48.300117 ] } },
{ "type": "Feature", "properties": { "full_id": "n337603364", "osm_id": "337603364", "place": "hamlet", "namerus": "Новоалександровка", "name": "Новоолександрівка" }, "geometry": { "type": "Point", "coordinates": [ 36.89957, 48.302029 ] } },
{ "type": "Feature", "properties": { "full_id": "n337603154", "osm_id": "337603154", "place": "hamlet", "namerus": "Калиновское", "name": "Калинівське" }, "geometry": { "type": "Point", "coordinates": [ 35.548664, 48.307529 ] } },
{ "type": "Feature", "properties": { "full_id": "n337603313", "osm_id": "337603313", "place": "hamlet", "namerus": "Красный Яр", "name": "Красний Яр" }, "geometry": { "type": "Point", "coordinates": [ 39.479271, 48.297001 ] } },
{ "type": "Feature", "properties": { "full_id": "n337603939", "osm_id": "337603939", "place": "hamlet", "namerus": "Жеребячье", "name": "Жереб’яче" }, "geometry": { "type": "Point", "coordinates": [ 38.7825086, 48.2832157 ] } },
{ "type": "Feature", "properties": { "full_id": "n337603571", "osm_id": "337603571", "place": "hamlet", "namerus": "Людмиловка", "name": "Людмилівка" }, "geometry": { "type": "Point", "coordinates": [ 34.120441, 48.295212 ] } },
{ "type": "Feature", "properties": { "full_id": "n337603435", "osm_id": "337603435", "place": "hamlet", "namerus": "Зелёный Гай", "name": "Зелений Гай" }, "geometry": { "type": "Point", "coordinates": [ 35.762211, 48.297958 ] } },
{ "type": "Feature", "properties": { "full_id": "n337604170", "osm_id": "337604170", "place": "hamlet", "namerus": "Диброва", "name": "Діброва" }, "geometry": { "type": "Point", "coordinates": [ 34.432735, 48.279095 ] } },
{ "type": "Feature", "properties": { "full_id": "n337604163", "osm_id": "337604163", "place": "hamlet", "namerus": "Сухарева Балка", "name": "Сухарева Балка" }, "geometry": { "type": "Point", "coordinates": [ 36.824383, 48.281044 ] } },
{ "type": "Feature", "properties": { "full_id": "n337604070", "osm_id": "337604070", "place": "hamlet", "namerus": "Попутное", "name": "Попутне" }, "geometry": { "type": "Point", "coordinates": [ 36.663441, 48.282162 ] } },
{ "type": "Feature", "properties": { "full_id": "n337604023", "osm_id": "337604023", "place": "hamlet", "namerus": "Балковое", "name": "Балкове" }, "geometry": { "type": "Point", "coordinates": [ 33.661079, 48.283539 ] } },
{ "type": "Feature", "properties": { "full_id": "n337604784", "osm_id": "337604784", "place": "hamlet", "namerus": "Червоная Балка", "name": "Червона Балка" }, "geometry": { "type": "Point", "coordinates": [ 34.292789, 48.266708 ] } },
{ "type": "Feature", "properties": { "full_id": "n337604464", "osm_id": "337604464", "place": "hamlet", "namerus": "Грушевка", "name": "Грушівка" }, "geometry": { "type": "Point", "coordinates": [ 34.590073, 48.289455 ] } },
{ "type": "Feature", "properties": { "full_id": "n337604477", "osm_id": "337604477", "place": "hamlet", "namerus": "Новотарасовка", "name": "Новотарасівка" }, "geometry": { "type": "Point", "coordinates": [ 34.659294, 48.275967 ] } },
{ "type": "Feature", "properties": { "full_id": "n337604384", "osm_id": "337604384", "place": "hamlet", "namerus": "Бабаково", "name": "Бабакове" }, "geometry": { "type": "Point", "coordinates": [ 35.800762, 48.270432 ] } },
{ "type": "Feature", "properties": { "full_id": "n337604417", "osm_id": "337604417", "place": "hamlet", "namerus": "Запорожское", "name": "Запорізьке" }, "geometry": { "type": "Point", "coordinates": [ 36.7317959, 48.2711555 ] } },
{ "type": "Feature", "properties": { "full_id": "n337605088", "osm_id": "337605088", "place": "hamlet", "namerus": "Волочаевка", "name": "Волочаївка" }, "geometry": { "type": "Point", "coordinates": [ 33.550018, 48.260654 ] } },
{ "type": "Feature", "properties": { "full_id": "n337605201", "osm_id": "337605201", "place": "hamlet", "namerus": "Средняя Терса", "name": "Середня Терса" }, "geometry": { "type": "Point", "coordinates": [ 35.738823, 48.258366 ] } },
{ "type": "Feature", "properties": { "full_id": "n337605057", "osm_id": "337605057", "place": "hamlet", "namerus": "Черкасское", "name": "Черкаське" }, "geometry": { "type": "Point", "coordinates": [ 34.361401, 48.256821 ] } },
{ "type": "Feature", "properties": { "full_id": "n337605081", "osm_id": "337605081", "place": "hamlet", "namerus": "Надия", "name": "Надія" }, "geometry": { "type": "Point", "coordinates": [ 34.1502426, 48.25985 ] } },
{ "type": "Feature", "properties": { "full_id": "n337604803", "osm_id": "337604803", "place": "hamlet", "namerus": "Садовое", "name": "Садове" }, "geometry": { "type": "Point", "coordinates": [ 35.56076, 48.264153 ] } },
{ "type": "Feature", "properties": { "full_id": "n337605022", "osm_id": "337605022", "place": "hamlet", "namerus": "Чувилино", "name": "Чувилине" }, "geometry": { "type": "Point", "coordinates": [ 34.888844, 48.259914 ] } },
{ "type": "Feature", "properties": { "full_id": "n337605648", "osm_id": "337605648", "place": "hamlet", "namerus": "Малокалиново", "name": "Малокалинове" }, "geometry": { "type": "Point", "coordinates": [ 39.686244, 48.2394665 ] } },
{ "type": "Feature", "properties": { "full_id": "n337605611", "osm_id": "337605611", "place": "hamlet", "namerus": "Солонцы", "name": "Солонці" }, "geometry": { "type": "Point", "coordinates": [ 35.7786816, 48.2439051 ] } },
{ "type": "Feature", "properties": { "full_id": "n337605384", "osm_id": "337605384", "place": "hamlet", "namerus": "Зелёная Роща", "name": "Зелена Роща" }, "geometry": { "type": "Point", "coordinates": [ 36.2859207, 48.2483739 ] } },
{ "type": "Feature", "properties": { "full_id": "n337605493", "osm_id": "337605493", "place": "hamlet", "namerus": "Березноватка", "name": "Березнуватка" }, "geometry": { "type": "Point", "coordinates": [ 35.602882, 48.246059 ] } },
{ "type": "Feature", "properties": { "full_id": "n337662654", "osm_id": "337662654", "place": "hamlet", "namerus": "Нововознесенка", "name": "Нововознесенка" }, "geometry": { "type": "Point", "coordinates": [ 34.87331, 48.012974 ] } },
{ "type": "Feature", "properties": { "full_id": "n337662626", "osm_id": "337662626", "place": "hamlet", "namerus": "Березовка", "name": "Березівка" }, "geometry": { "type": "Point", "coordinates": [ 39.5333535, 48.0073136 ] } },
{ "type": "Feature", "properties": { "full_id": "n337662647", "osm_id": "337662647", "place": "hamlet", "namerus": "Круглик", "name": "Круглик" }, "geometry": { "type": "Point", "coordinates": [ 35.164494, 48.010796 ] } },
{ "type": "Feature", "properties": { "full_id": "n337662516", "osm_id": "337662516", "place": "hamlet", "namerus": "Лемешинское", "name": "Лемешинське" }, "geometry": { "type": "Point", "coordinates": [ 35.030251, 48.015751 ] } },
{ "type": "Feature", "properties": { "full_id": "n337662366", "osm_id": "337662366", "place": "hamlet", "namerus": "Каменка", "name": "Кам’янка" }, "geometry": { "type": "Point", "coordinates": [ 35.9606554, 48.0202807 ] } },
{ "type": "Feature", "properties": { "full_id": "n337662372", "osm_id": "337662372", "place": "hamlet", "namerus": "Зелёное", "name": "Зелене" }, "geometry": { "type": "Point", "coordinates": [ 34.203796, 48.018627 ] } },
{ "type": "Feature", "properties": { "full_id": "n337663381", "osm_id": "337663381", "place": "hamlet", "namerus": "Михайловка", "name": "Михайлівка" }, "geometry": { "type": "Point", "coordinates": [ 33.907642, 47.999035 ] } },
{ "type": "Feature", "properties": { "full_id": "n337663221", "osm_id": "337663221", "place": "hamlet", "namerus": "Новокраснополь", "name": "Новокраснопіль" }, "geometry": { "type": "Point", "coordinates": [ 34.8559833, 47.9975442 ] } },
{ "type": "Feature", "properties": { "full_id": "n337662976", "osm_id": "337662976", "place": "hamlet", "namerus": "Веселотерноватое", "name": "Веселотернувате" }, "geometry": { "type": "Point", "coordinates": [ 35.309559, 48.005417 ] } },
{ "type": "Feature", "properties": { "full_id": "n337663748", "osm_id": "337663748", "place": "hamlet", "namerus": "Краснополь", "name": "Краснопіль" }, "geometry": { "type": "Point", "coordinates": [ 34.8383895, 47.987508 ] } },
{ "type": "Feature", "properties": { "full_id": "n337663720", "osm_id": "337663720", "place": "hamlet", "namerus": "Грузская Григоровка", "name": "Грузька Григорівка" }, "geometry": { "type": "Point", "coordinates": [ 33.15914, 47.98725 ] } },
{ "type": "Feature", "properties": { "full_id": "n337663617", "osm_id": "337663617", "place": "hamlet", "namerus": "Новоднепровка", "name": "Новодніпровка" }, "geometry": { "type": "Point", "coordinates": [ 34.882961, 47.990341 ] } },
{ "type": "Feature", "properties": { "full_id": "n337663625", "osm_id": "337663625", "place": "hamlet", "namerus": "Вишняки", "name": "Вишняки" }, "geometry": { "type": "Point", "coordinates": [ 35.320702, 47.990002 ] } },
{ "type": "Feature", "properties": { "full_id": "n337663559", "osm_id": "337663559", "place": "hamlet", "namerus": "Лесное", "name": "Лісне" }, "geometry": { "type": "Point", "coordinates": [ 36.5354956, 47.9918139 ] } },
{ "type": "Feature", "properties": { "full_id": "n337664124", "osm_id": "337664124", "place": "hamlet", "namerus": "Кашкаровка", "name": "Кашкарівка" }, "geometry": { "type": "Point", "coordinates": [ 34.352871, 47.974548 ] } },